[{"xid":"W549690387","name":"Puro Norte Super","rate":1,"osm":"way/549690387","kinds":"shops,supermarkets,tourist_facilities","point":{"lon":-104.425964,"lat":29.535576}},{"xid":"W549780014","name":"Coppel","rate":1,"osm":"way/549780014","kinds":"shops,supermarkets,tourist_facilities","point":{"lon":-104.422493,"lat":29.54985}},{"xid":"W549780013","name":"Soriana","rate":1,"osm":"way/549780013","kinds":"shops,supermarkets,tourist_facilities","point":{"lon":-104.422859,"lat":29.549698}},{"xid":"W550010788","name":"Supermercado","rate":1,"osm":"way/550010788","kinds":"shops,supermarkets,tourist_facilities","point":{"lon":-104.411972,"lat":29.55769}},{"xid":"W203685764","name":"Porter's Thriftway","rate":1,"osm":"way/203685764","kinds":"shops,supermarkets,tourist_facilities","point":{"lon":-104.371056,"lat":29.565319}}]