[{"xid":"N5262887617","name":"Sooner Foods","rate":1,"osm":"node/5262887617","kinds":"shops,supermarkets,tourist_facilities","point":{"lon":-96.674324,"lat":34.232037}},{"xid":"N5315599554","name":"Walmart","rate":1,"osm":"node/5315599554","kinds":"shops,supermarkets,tourist_facilities","point":{"lon":-96.142639,"lat":34.366219}},{"xid":"N5315599559","name":"Walmart Supercenter","rate":1,"osm":"node/5315599559","kinds":"shops,supermarkets,tourist_facilities","point":{"lon":-96.656143,"lat":34.789127}},{"xid":"N5315601782","name":"Walmart Supercenter","rate":1,"osm":"node/5315601782","kinds":"shops,supermarkets,tourist_facilities","point":{"lon":-96.765549,"lat":34.069992}},{"xid":"W608805971","name":"Apple Market","rate":1,"osm":"way/608805971","kinds":"shops,supermarkets,tourist_facilities","point":{"lon":-96.675827,"lat":34.772831}},{"xid":"N6522224044","name":"Walmart Supercenter","rate":1,"osm":"node/6522224044","kinds":"shops,supermarkets,tourist_facilities","point":{"lon":-96.413277,"lat":34.000328}},{"xid":"W608125984","name":"Pruett's Food","rate":1,"osm":"way/608125984","kinds":"shops,supermarkets,tourist_facilities","point":{"lon":-96.39151,"lat":34.005878}}]