[{"xid":"N1659685806","name":"County Fair Market","rate":1,"osm":"node/1659685806","kinds":"shops,supermarkets,tourist_facilities","point":{"lon":-118.91378,"lat":35.260353}},{"xid":"N2356753208","name":"Sierra Gateway Market","rate":1,"osm":"node/2356753208","kinds":"shops,supermarkets,tourist_facilities","point":{"lon":-118.41877,"lat":35.758068}},{"xid":"N2955459533","name":"Albertsons","rate":1,"osm":"node/2955459533","kinds":"shops,supermarkets,tourist_facilities","point":{"lon":-118.469383,"lat":35.125645}},{"xid":"N3146557159","name":"SaveMart","rate":1,"osm":"node/3146557159","kinds":"shops,supermarkets,tourist_facilities","point":{"lon":-118.468391,"lat":35.122726}},{"xid":"N5315601366","name":"Walmart Supercenter","rate":1,"osm":"node/5315601366","kinds":"shops,supermarkets,tourist_facilities","point":{"lon":-118.960831,"lat":35.391533}},{"xid":"W132260849","name":"Vons 2413","rate":1,"osm":"way/132260849","kinds":"shops,supermarkets,tourist_facilities","point":{"lon":-118.476021,"lat":35.617943}},{"xid":"W60023339","name":"Stop & Shop Market","rate":1,"osm":"way/60023339","kinds":"shops,supermarkets,tourist_facilities","point":{"lon":-118.992729,"lat":35.353668}},{"xid":"W59795363","name":"","rate":0,"osm":"way/59795363","kinds":"shops,supermarkets,tourist_facilities","point":{"lon":-118.951859,"lat":35.398842}},{"xid":"W60086634","name":"","rate":0,"osm":"way/60086634","kinds":"shops,supermarkets,tourist_facilities","point":{"lon":-118.985634,"lat":35.39896}},{"xid":"W59982360","name":"","rate":0,"osm":"way/59982360","kinds":"shops,supermarkets,tourist_facilities","point":{"lon":-118.993942,"lat":35.301502}},{"xid":"W60016644","name":"","rate":0,"osm":"way/60016644","kinds":"shops,supermarkets,tourist_facilities","point":{"lon":-118.99382,"lat":35.395153}},{"xid":"W60030264","name":"","rate":0,"osm":"way/60030264","kinds":"shops,supermarkets,tourist_facilities","point":{"lon":-118.987358,"lat":35.39373}}]