[{"xid":"W507061220","name":"ALDI","rate":1,"osm":"way/507061220","kinds":"shops,supermarkets,tourist_facilities","point":{"lon":-91.780281,"lat":37.931023}},{"xid":"W610606980","name":"Walmart Supercenter","rate":1,"osm":"way/610606980","kinds":"shops,supermarkets,tourist_facilities","point":{"lon":-91.546051,"lat":37.633976}},{"xid":"W331134149","name":"Kroger","rate":1,"osm":"way/331134149","kinds":"shops,supermarkets,tourist_facilities","point":{"lon":-91.776245,"lat":37.946693}},{"xid":"W506603761","name":"Price Chopper","rate":1,"osm":"way/506603761","kinds":"shops,supermarkets,tourist_facilities","point":{"lon":-91.751678,"lat":37.953869}},{"xid":"W601161476","name":"Apple Market","rate":1,"osm":"way/601161476","kinds":"shops,supermarkets,tourist_facilities","point":{"lon":-91.707184,"lat":37.00246}},{"xid":"W611327556","name":"Country Mart","rate":1,"osm":"way/611327556","kinds":"shops,supermarkets,tourist_facilities","point":{"lon":-91.520821,"lat":37.636314}},{"xid":"N1391566915","name":"Kmart","rate":1,"osm":"node/1391566915","kinds":"shops,supermarkets,tourist_facilities","point":{"lon":-91.77681,"lat":37.930195}},{"xid":"N5787957037","name":"Grocery Outlet","rate":1,"osm":"node/5787957037","kinds":"shops,supermarkets,tourist_facilities","point":{"lon":-91.5345,"lat":37.640701}},{"xid":"W194856740","name":"Walmart Supercenter","rate":1,"osm":"way/194856740","kinds":"shops,supermarkets,tourist_facilities","point":{"lon":-91.962601,"lat":37.31353}},{"xid":"W195681378","name":"Walmart Supercenter","rate":1,"osm":"way/195681378","kinds":"shops,supermarkets,tourist_facilities","point":{"lon":-91.779221,"lat":37.937672}},{"xid":"W582007947","name":"Country Mart","rate":1,"osm":"way/582007947","kinds":"shops,supermarkets,tourist_facilities","point":{"lon":-91.617661,"lat":37.999607}},{"xid":"W601161475","name":"Walmart","rate":1,"osm":"way/601161475","kinds":"shops,supermarkets,tourist_facilities","point":{"lon":-91.70639,"lat":37.002552}}]