[{"xid":"N1251754307","name":"The Best Market","rate":1,"osm":"node/1251754307","kinds":"shops,supermarkets,tourist_facilities","point":{"lon":-100.924141,"lat":37.024609}},{"xid":"N1482564089","name":"Dillons East","rate":1,"osm":"node/1482564089","kinds":"shops,supermarkets,tourist_facilities","point":{"lon":-100.85788,"lat":37.97644}},{"xid":"N1482648471","name":"Dillons West","rate":1,"osm":"node/1482648471","kinds":"shops,supermarkets,tourist_facilities","point":{"lon":-100.884575,"lat":37.976677}},{"xid":"N2338822204","name":"Harvest Market","rate":1,"osm":"node/2338822204","kinds":"shops,supermarkets,tourist_facilities","point":{"lon":-100.442581,"lat":37.597553}},{"xid":"N6395662985","name":"Wallmart","rate":1,"osm":"node/6395662985","kinds":"shops,supermarkets,tourist_facilities","point":{"lon":-100.83548,"lat":37.986328}},{"xid":"W662485380","name":"Walmart Supercenter","rate":1,"osm":"way/662485380","kinds":"shops,supermarkets,tourist_facilities","point":{"lon":-100.91687,"lat":37.067066}},{"xid":"W682119215","name":"Walmart Supercenter","rate":1,"osm":"way/682119215","kinds":"shops,supermarkets,tourist_facilities","point":{"lon":-100.035744,"lat":37.768505}},{"xid":"W682126440","name":"Walmart Supercenter","rate":1,"osm":"way/682126440","kinds":"shops,supermarkets,tourist_facilities","point":{"lon":-100.836571,"lat":37.986378}},{"xid":"N1251735230","name":"Dillons","rate":1,"osm":"node/1251735230","kinds":"shops,supermarkets,tourist_facilities","point":{"lon":-100.920456,"lat":37.053505}},{"xid":"W682128473","name":"Walmart Neighborhood Market","rate":1,"osm":"way/682128473","kinds":"shops,supermarkets,tourist_facilities","point":{"lon":-100.881645,"lat":37.987186}},{"xid":"W133686446","name":"Walmart Neighborhood Market","rate":1,"osm":"way/133686446","kinds":"shops,supermarkets,tourist_facilities","point":{"lon":-100.942535,"lat":37.045284}}]