[{"xid":"W316100366","name":"Manor Market","rate":1,"osm":"way/316100366","kinds":"shops,supermarkets,tourist_facilities","point":{"lon":-118.43676,"lat":37.360977}},{"xid":"N1941035623","name":"Carrolls Market","rate":1,"osm":"node/1941035623","kinds":"shops,supermarkets,tourist_facilities","point":{"lon":-118.289337,"lat":37.165699}},{"xid":"N3059338355","name":"Vons","rate":1,"osm":"node/3059338355","kinds":"shops,supermarkets,tourist_facilities","point":{"lon":-118.96521,"lat":37.638626}},{"xid":"N3221988857","name":"Smart N Final","rate":1,"osm":"node/3221988857","kinds":"shops,supermarkets,tourist_facilities","point":{"lon":-118.394699,"lat":37.373402}},{"xid":"N6510421886","name":"Mahogany smoked meats","rate":1,"osm":"node/6510421886","kinds":"shops,supermarkets,tourist_facilities","point":{"lon":-118.417686,"lat":37.376011}},{"xid":"N6680647089","name":"Grocery Outlet","rate":1,"osm":"node/6680647089","kinds":"shops,supermarkets,tourist_facilities","point":{"lon":-118.395073,"lat":37.376362}},{"xid":"W316091157","name":"Rite Aid Pharmacy","rate":1,"osm":"way/316091157","kinds":"shops,supermarkets,tourist_facilities","point":{"lon":-118.420761,"lat":37.377338}},{"xid":"W316101403","name":"Joseph's Bi-Rite Market","rate":1,"osm":"way/316101403","kinds":"shops,supermarkets,tourist_facilities","point":{"lon":-118.39579,"lat":37.362309}},{"xid":"W128845701","name":"Vons 1753","rate":1,"osm":"way/128845701","kinds":"shops,supermarkets,tourist_facilities","point":{"lon":-118.391426,"lat":37.373466}}]