[{"xid":"W274707435","name":"Town and Country Supermarket","rate":1,"osm":"way/274707435","kinds":"shops,supermarkets,tourist_facilities","point":{"lon":-98.774796,"lat":38.520992}},{"xid":"N815116962","name":"Alco","rate":1,"osm":"node/815116962","kinds":"shops,supermarkets,tourist_facilities","point":{"lon":-98.218887,"lat":38.348728}},{"xid":"N4373115497","name":"Wilson Family Foods","rate":1,"osm":"node/4373115497","kinds":"shops,supermarkets,tourist_facilities","point":{"lon":-98.474068,"lat":38.825741}},{"xid":"N4773312719","name":"Dillons","rate":1,"osm":"node/4773312719","kinds":"shops,supermarkets,tourist_facilities","point":{"lon":-98.794098,"lat":38.35997}},{"xid":"W289494538","name":"Walmart Supercenter","rate":1,"osm":"way/289494538","kinds":"shops,supermarkets,tourist_facilities","point":{"lon":-98.787201,"lat":38.359028}},{"xid":"N4723304200","name":"Dillons","rate":1,"osm":"node/4723304200","kinds":"shops,supermarkets,tourist_facilities","point":{"lon":-98.206482,"lat":38.208004}},{"xid":"W458445170","name":"Bailey's Food Bin","rate":1,"osm":"way/458445170","kinds":"shops,supermarkets,tourist_facilities","point":{"lon":-98.534111,"lat":38.522652}}]