[{"xid":"W174500953","name":"Dillons","rate":1,"osm":"way/174500953","kinds":"shops,supermarkets,tourist_facilities","point":{"lon":-97.592293,"lat":38.813793}},{"xid":"N494614237","name":"empty building","rate":1,"osm":"node/494614237","kinds":"shops,supermarkets,tourist_facilities","point":{"lon":-97.210976,"lat":38.361935}},{"xid":"N496296414","name":"IGA Moundridge Food Market","rate":1,"osm":"node/496296414","kinds":"shops,supermarkets,tourist_facilities","point":{"lon":-97.509293,"lat":38.202057}},{"xid":"N512465159","name":"Dillons","rate":1,"osm":"node/512465159","kinds":"shops,supermarkets,tourist_facilities","point":{"lon":-97.344208,"lat":38.056465}},{"xid":"N522245627","name":"Dillons","rate":1,"osm":"node/522245627","kinds":"shops,supermarkets,tourist_facilities","point":{"lon":-97.334587,"lat":38.027573}},{"xid":"N1014789610","name":"Goessel Coop Food Store","rate":1,"osm":"node/1014789610","kinds":"shops,supermarkets,tourist_facilities","point":{"lon":-97.347054,"lat":38.246727}},{"xid":"N2476134521","name":"Dillons","rate":1,"osm":"node/2476134521","kinds":"shops,supermarkets,tourist_facilities","point":{"lon":-97.623528,"lat":38.825958}},{"xid":"W167562881","name":"Dillons","rate":1,"osm":"way/167562881","kinds":"shops,supermarkets,tourist_facilities","point":{"lon":-97.61496,"lat":38.799515}},{"xid":"W126172023","name":"Walmart Supercenter","rate":1,"osm":"way/126172023","kinds":"shops,supermarkets,tourist_facilities","point":{"lon":-97.628098,"lat":38.367577}},{"xid":"W174500967","name":"Walmart Supercenter","rate":1,"osm":"way/174500967","kinds":"shops,supermarkets,tourist_facilities","point":{"lon":-97.614998,"lat":38.785469}},{"xid":"W255174534","name":"Walmart Supercenter","rate":1,"osm":"way/255174534","kinds":"shops,supermarkets,tourist_facilities","point":{"lon":-97.339127,"lat":38.023304}},{"xid":"W207092178","name":"Walmart Supercenter","rate":1,"osm":"way/207092178","kinds":"shops,supermarkets,tourist_facilities","point":{"lon":-97.89222,"lat":38.070011}},{"xid":"W418250787","name":"Aldi","rate":1,"osm":"way/418250787","kinds":"shops,supermarkets,tourist_facilities","point":{"lon":-97.614731,"lat":38.791042}},{"xid":"N522275103","name":"Dales Supermarket","rate":1,"osm":"node/522275103","kinds":"shops,supermarkets,tourist_facilities","point":{"lon":-97.2052,"lat":38.3535}},{"xid":"N994305168","name":"Hesston Food Market","rate":1,"osm":"node/994305168","kinds":"shops,supermarkets,tourist_facilities","point":{"lon":-97.432457,"lat":38.138168}},{"xid":"W551999142","name":"Dillon's","rate":1,"osm":"way/551999142","kinds":"shops,supermarkets,tourist_facilities","point":{"lon":-97.665688,"lat":38.383381}},{"xid":"W562654228","name":"Chapman Food Mart","rate":1,"osm":"way/562654228","kinds":"shops,supermarkets,tourist_facilities","point":{"lon":-97.020493,"lat":38.980648}},{"xid":"W685008420","name":"Save-A-Lot","rate":1,"osm":"way/685008420","kinds":"shops,supermarkets,tourist_facilities","point":{"lon":-97.604027,"lat":38.840828}}]