[{"xid":"W186159295","name":"Shoprite of Netcong","rate":3,"osm":"way/186159295","wikidata":"Q6998839","kinds":"shops,supermarkets,tourist_facilities","point":{"lon":-74.705368,"lat":40.896835}},{"xid":"W442694555","name":"George Street Co-op","rate":2,"osm":"way/442694555","wikidata":"Q5544902","kinds":"shops,supermarkets,tourist_facilities","point":{"lon":-74.445007,"lat":40.491772}},{"xid":"W154418200","name":"Stop & Shop","rate":1,"osm":"way/154418200","kinds":"shops,supermarkets,tourist_facilities","point":{"lon":-74.424759,"lat":40.499321}},{"xid":"W161490600","name":"Walmart","rate":1,"osm":"way/161490600","kinds":"shops,supermarkets,tourist_facilities","point":{"lon":-74.676956,"lat":40.3032}},{"xid":"W172453355","name":"Wegmans","rate":1,"osm":"way/172453355","kinds":"shops,supermarkets,tourist_facilities","point":{"lon":-74.675133,"lat":40.306023}},{"xid":"W185394378","name":"Stop and Shop","rate":1,"osm":"way/185394378","kinds":"shops,supermarkets,tourist_facilities","point":{"lon":-74.559013,"lat":40.429565}},{"xid":"W187798477","name":"Garden Farm Market","rate":1,"osm":"way/187798477","kinds":"shops,supermarkets,tourist_facilities","point":{"lon":-74.326172,"lat":40.549294}},{"xid":"W200829924","name":"Kings","rate":1,"osm":"way/200829924","kinds":"shops,supermarkets,tourist_facilities","point":{"lon":-74.113335,"lat":40.981182}},{"xid":"W200986168","name":"Whole Foods Market","rate":1,"osm":"way/200986168","kinds":"shops,supermarkets,tourist_facilities","point":{"lon":-74.122513,"lat":40.978405}},{"xid":"W201332055","name":"Bravo","rate":1,"osm":"way/201332055","kinds":"shops,supermarkets,tourist_facilities","point":{"lon":-74.442329,"lat":40.491283}},{"xid":"W241381444","name":"Shoprite","rate":1,"osm":"way/241381444","kinds":"shops,supermarkets,tourist_facilities","point":{"lon":-74.648216,"lat":40.867352}},{"xid":"W248468205","name":"Foodtown","rate":1,"osm":"way/248468205","kinds":"shops,supermarkets,tourist_facilities","point":{"lon":-74.032272,"lat":40.619732}},{"xid":"W248486405","name":"Key Food Bay Ridge","rate":1,"osm":"way/248486405","kinds":"shops,supermarkets,tourist_facilities","point":{"lon":-74.02739,"lat":40.635792}},{"xid":"W249054014","name":"Commissary","rate":1,"osm":"way/249054014","kinds":"shops,supermarkets,tourist_facilities","point":{"lon":-74.027321,"lat":40.61174}},{"xid":"W249534584","name":"Fei Long Supermarket/Minimall","rate":1,"osm":"way/249534584","kinds":"shops,supermarkets,tourist_facilities","point":{"lon":-74.011345,"lat":40.633354}},{"xid":"W249576688","name":"Met Foodmart","rate":1,"osm":"way/249576688","kinds":"shops,supermarkets,tourist_facilities","point":{"lon":-74.014977,"lat":40.640308}},{"xid":"W253385142","name":"Kings","rate":1,"osm":"way/253385142","kinds":"shops,supermarkets,tourist_facilities","point":{"lon":-74.38446,"lat":40.712498}},{"xid":"W255265769","name":"Shoprite","rate":1,"osm":"way/255265769","kinds":"shops,supermarkets,tourist_facilities","point":{"lon":-74.30732,"lat":40.717979}},{"xid":"W256763985","name":"Vine Ripe Market","rate":1,"osm":"way/256763985","kinds":"shops,supermarkets,tourist_facilities","point":{"lon":-74.339828,"lat":40.650951}},{"xid":"W260912297","name":"Wegmans","rate":1,"osm":"way/260912297","kinds":"shops,supermarkets,tourist_facilities","point":{"lon":-74.298302,"lat":40.289532}},{"xid":"W265560963","name":"Kings","rate":1,"osm":"way/265560963","kinds":"shops,supermarkets,tourist_facilities","point":{"lon":-74.027611,"lat":40.74033}},{"xid":"W265560949","name":"ACME Markets","rate":1,"osm":"way/265560949","kinds":"shops,supermarkets,tourist_facilities","point":{"lon":-74.037369,"lat":40.732918}},{"xid":"W268182635","name":"Super Foodtown","rate":1,"osm":"way/268182635","kinds":"shops,supermarkets,tourist_facilities","point":{"lon":-74.324921,"lat":40.599728}},{"xid":"W277905726","name":"Stop & Shop","rate":1,"osm":"way/277905726","kinds":"shops,supermarkets,tourist_facilities","point":{"lon":-74.176315,"lat":40.855549}},{"xid":"W307016859","name":"Walmart Supercenter","rate":1,"osm":"way/307016859","kinds":"shops,supermarkets,tourist_facilities","point":{"lon":-74.101021,"lat":40.866619}},{"xid":"W308075475","name":"Gourmanoff","rate":1,"osm":"way/308075475","kinds":"shops,supermarkets,tourist_facilities","point":{"lon":-74.052711,"lat":40.916206}},{"xid":"W332771287","name":"Acme Markets","rate":1,"osm":"way/332771287","kinds":"shops,supermarkets,tourist_facilities","point":{"lon":-74.140396,"lat":40.98312}},{"xid":"W341331749","name":"Acme","rate":1,"osm":"way/341331749","kinds":"shops,supermarkets,tourist_facilities","point":{"lon":-74.001144,"lat":40.912853}},{"xid":"W355762063","name":"ShopRite","rate":1,"osm":"way/355762063","kinds":"shops,supermarkets,tourist_facilities","point":{"lon":-74.647041,"lat":40.404892}},{"xid":"W366521822","name":"ShopRite","rate":1,"osm":"way/366521822","kinds":"shops,supermarkets,tourist_facilities","point":{"lon":-74.035355,"lat":40.776733}},{"xid":"W371377293","name":"Food Bazaar","rate":1,"osm":"way/371377293","kinds":"shops,supermarkets,tourist_facilities","point":{"lon":-74.044128,"lat":40.764595}},{"xid":"W379234692","name":"ShopRite","rate":1,"osm":"way/379234692","kinds":"shops,supermarkets,tourist_facilities","point":{"lon":-74.769218,"lat":40.249432}},{"xid":"W379239866","name":"J&S Mini Market","rate":1,"osm":"way/379239866","kinds":"shops,supermarkets,tourist_facilities","point":{"lon":-74.190987,"lat":40.908642}},{"xid":"W379425946","name":"Lose Vecinos","rate":1,"osm":"way/379425946","kinds":"shops,supermarkets,tourist_facilities","point":{"lon":-74.173889,"lat":40.910393}},{"xid":"W379446873","name":"Peter Grocery","rate":1,"osm":"way/379446873","kinds":"shops,supermarkets,tourist_facilities","point":{"lon":-74.169914,"lat":40.92202}},{"xid":"W379477708","name":"Circle Ave Grocery","rate":1,"osm":"way/379477708","kinds":"shops,supermarkets,tourist_facilities","point":{"lon":-74.175377,"lat":40.925186}},{"xid":"W380070879","name":"Aldi","rate":1,"osm":"way/380070879","kinds":"shops,supermarkets,tourist_facilities","point":{"lon":-74.93895,"lat":40.090416}},{"xid":"W387885984","name":"Walmart","rate":1,"osm":"way/387885984","kinds":"shops,supermarkets,tourist_facilities","point":{"lon":-74.40406,"lat":40.907135}},{"xid":"W396113960","name":"Supremo","rate":1,"osm":"way/396113960","kinds":"shops,supermarkets,tourist_facilities","point":{"lon":-74.047417,"lat":40.739647}},{"xid":"W454780775","name":"Walmart Supercenter","rate":1,"osm":"way/454780775","kinds":"shops,supermarkets,tourist_facilities","point":{"lon":-74.124931,"lat":40.072693}},{"xid":"W468547806","name":"Charlie's Grocery Store","rate":1,"osm":"way/468547806","kinds":"shops,supermarkets,tourist_facilities","point":{"lon":-74.019928,"lat":40.786022}},{"xid":"W469589040","name":"Stop & Shop","rate":1,"osm":"way/469589040","kinds":"shops,supermarkets,tourist_facilities","point":{"lon":-74.206322,"lat":40.681862}},{"xid":"W470113245","name":"C-Town","rate":1,"osm":"way/470113245","kinds":"shops,supermarkets,tourist_facilities","point":{"lon":-74.150429,"lat":40.907497}},{"xid":"W480283503","name":"Whole Foods Market","rate":1,"osm":"way/480283503","kinds":"shops,supermarkets,tourist_facilities","point":{"lon":-74.286903,"lat":40.7169}},{"xid":"W512167364","name":"ALDI","rate":1,"osm":"way/512167364","kinds":"shops,supermarkets,tourist_facilities","point":{"lon":-74.761902,"lat":40.246109}},{"xid":"W534675248","name":"ShopRite","rate":1,"osm":"way/534675248","kinds":"shops,supermarkets,tourist_facilities","point":{"lon":-74.985176,"lat":40.064976}},{"xid":"W544025333","name":"ShopRite","rate":1,"osm":"way/544025333","kinds":"shops,supermarkets,tourist_facilities","point":{"lon":-74.39122,"lat":40.575413}},{"xid":"W546688973","name":"Acme","rate":1,"osm":"way/546688973","kinds":"shops,supermarkets,tourist_facilities","point":{"lon":-74.670944,"lat":40.2286}},{"xid":"W548237429","name":"Target","rate":1,"osm":"way/548237429","kinds":"shops,supermarkets,tourist_facilities","point":{"lon":-74.134926,"lat":40.411896}},{"xid":"W557052152","name":"Stop & Shop","rate":1,"osm":"way/557052152","kinds":"shops,supermarkets,tourist_facilities","point":{"lon":-74.352005,"lat":40.653431}},{"xid":"W570341921","name":"Walmart Supercenter","rate":1,"osm":"way/570341921","kinds":"shops,supermarkets,tourist_facilities","point":{"lon":-74.319344,"lat":40.37376}},{"xid":"W575708472","name":"Centre Commercial E. Leclerc","rate":1,"osm":"way/575708472","kinds":"shops,supermarkets,tourist_facilities","point":{"lon":-74.035973,"lat":40.993237}},{"xid":"W584954082","name":"ShopRite","rate":1,"osm":"way/584954082","kinds":"shops,supermarkets,tourist_facilities","point":{"lon":-74.69194,"lat":40.604713}},{"xid":"W607986770","name":"Whole Foods Market","rate":1,"osm":"way/607986770","kinds":"shops,supermarkets,tourist_facilities","point":{"lon":-74.562515,"lat":40.576283}},{"xid":"W611697587","name":"Krauszer's Food Store","rate":1,"osm":"way/611697587","kinds":"shops,supermarkets,tourist_facilities","point":{"lon":-74.4944,"lat":40.6185}},{"xid":"W637562479","name":"Walmart Supercenter","rate":1,"osm":"way/637562479","kinds":"shops,supermarkets,tourist_facilities","point":{"lon":-74.962479,"lat":40.083313}},{"xid":"W644556174","name":"Lidl","rate":1,"osm":"way/644556174","kinds":"shops,supermarkets,tourist_facilities","point":{"lon":-74.294067,"lat":40.691353}},{"xid":"W671586050","name":"ShopRite","rate":1,"osm":"way/671586050","kinds":"shops,supermarkets,tourist_facilities","point":{"lon":-74.304741,"lat":40.410755}},{"xid":"W700529935","name":"Super C","rate":1,"osm":"way/700529935","kinds":"shops,supermarkets,tourist_facilities","point":{"lon":-74.231453,"lat":40.664879}},{"xid":"N297456592","name":"Big Banner","rate":1,"osm":"node/297456592","kinds":"shops,supermarkets,tourist_facilities","point":{"lon":-74.039452,"lat":40.743282}},{"xid":"N537491872","name":"Stop and Shop","rate":1,"osm":"node/537491872","kinds":"shops,supermarkets,tourist_facilities","point":{"lon":-74.363106,"lat":40.524158}},{"xid":"N560898079","name":"ShopRite","rate":1,"osm":"node/560898079","kinds":"shops,supermarkets,tourist_facilities","point":{"lon":-74.442749,"lat":40.55159}},{"xid":"N608441906","name":"Stop & Shop","rate":1,"osm":"node/608441906","kinds":"shops,supermarkets,tourist_facilities","point":{"lon":-74.10112,"lat":40.842983}},{"xid":"N616557004","name":"McCaffrey's","rate":1,"osm":"node/616557004","kinds":"shops,supermarkets,tourist_facilities","point":{"lon":-74.871948,"lat":40.220657}},{"xid":"N616557008","name":"Giant","rate":1,"osm":"node/616557008","kinds":"shops,supermarkets,tourist_facilities","point":{"lon":-74.873894,"lat":40.22205}},{"xid":"N631385129","name":"ShopRite","rate":1,"osm":"node/631385129","kinds":"shops,supermarkets,tourist_facilities","point":{"lon":-74.305099,"lat":40.628761}},{"xid":"N708024044","name":"Shop Rite of Washington","rate":1,"osm":"node/708024044","kinds":"shops,supermarkets,tourist_facilities","point":{"lon":-74.975777,"lat":40.739288}},{"xid":"N762729459","name":"ShopRite","rate":1,"osm":"node/762729459","kinds":"shops,supermarkets,tourist_facilities","point":{"lon":-74.137619,"lat":40.938602}},{"xid":"N768276133","name":"Birn's Chocolate","rate":1,"osm":"node/768276133","kinds":"shops,supermarkets,tourist_facilities","point":{"lon":-74.432457,"lat":40.505257}},{"xid":"N826289202","name":"Shop Rite","rate":1,"osm":"node/826289202","kinds":"shops,supermarkets,tourist_facilities","point":{"lon":-74.643272,"lat":40.500633}},{"xid":"N849503153","name":"ShopRite","rate":1,"osm":"node/849503153","kinds":"shops,supermarkets,tourist_facilities","point":{"lon":-74.276794,"lat":40.24329}},{"xid":"N857949871","name":"Whole Foods Market","rate":1,"osm":"node/857949871","kinds":"shops,supermarkets,tourist_facilities","point":{"lon":-74.249092,"lat":40.804279}},{"xid":"N889040270","name":"Eden Gourmet","rate":1,"osm":"node/889040270","kinds":"shops,supermarkets,tourist_facilities","point":{"lon":-74.259651,"lat":40.74649}},{"xid":"N989726267","name":"Shoprite","rate":1,"osm":"node/989726267","kinds":"shops,supermarkets,tourist_facilities","point":{"lon":-74.570221,"lat":40.905151}},{"xid":"N1028012984","name":"Trader Joe's","rate":1,"osm":"node/1028012984","kinds":"shops,supermarkets,tourist_facilities","point":{"lon":-74.296066,"lat":40.722992}},{"xid":"N1028690388","name":"Foodtown","rate":1,"osm":"node/1028690388","kinds":"shops,supermarkets,tourist_facilities","point":{"lon":-74.307945,"lat":40.24102}},{"xid":"N1058103683","name":"A&P Supermarket","rate":1,"osm":"node/1058103683","kinds":"shops,supermarkets,tourist_facilities","point":{"lon":-74.243996,"lat":40.334915}},{"xid":"N1130139451","name":"ShopRite","rate":1,"osm":"node/1130139451","kinds":"shops,supermarkets,tourist_facilities","point":{"lon":-74.552963,"lat":40.570099}},{"xid":"N1263410445","name":"ACME Markets","rate":1,"osm":"node/1263410445","kinds":"shops,supermarkets,tourist_facilities","point":{"lon":-74.497658,"lat":40.614819}},{"xid":"N1270395462","name":"Trader Joe's","rate":1,"osm":"node/1270395462","kinds":"shops,supermarkets,tourist_facilities","point":{"lon":-74.036064,"lat":40.99313}},{"xid":"N1301347483","name":"Pathmark","rate":1,"osm":"node/1301347483","kinds":"shops,supermarkets,tourist_facilities","point":{"lon":-74.149307,"lat":40.727177}},{"xid":"N1422527965","name":"McCaffrey's Market","rate":1,"osm":"node/1422527965","kinds":"shops,supermarkets,tourist_facilities","point":{"lon":-74.651878,"lat":40.364384}},{"xid":"N1433614721","name":"Stop & Shop","rate":1,"osm":"node/1433614721","kinds":"shops,supermarkets,tourist_facilities","point":{"lon":-74.142929,"lat":40.023834}},{"xid":"N1632848616","name":"King's","rate":1,"osm":"node/1632848616","kinds":"shops,supermarkets,tourist_facilities","point":{"lon":-74.589073,"lat":40.783108}},{"xid":"N1691492301","name":"Shop Rite","rate":1,"osm":"node/1691492301","kinds":"shops,supermarkets,tourist_facilities","point":{"lon":-74.228027,"lat":40.589504}},{"xid":"N1695139525","name":"Grand Union","rate":1,"osm":"node/1695139525","kinds":"shops,supermarkets,tourist_facilities","point":{"lon":-74.00338,"lat":40.932941}},{"xid":"N1697734483","name":"Extra Super Market","rate":1,"osm":"node/1697734483","kinds":"shops,supermarkets,tourist_facilities","point":{"lon":-74.235542,"lat":40.72501}},{"xid":"N1727242107","name":"Garden Farmers Market Inc","rate":1,"osm":"node/1727242107","kinds":"shops,supermarkets,tourist_facilities","point":{"lon":-74.170868,"lat":40.801933}},{"xid":"N1745854165","name":"Shoprite","rate":1,"osm":"node/1745854165","kinds":"shops,supermarkets,tourist_facilities","point":{"lon":-74.004402,"lat":40.852142}},{"xid":"N1798026506","name":"Shoprite","rate":1,"osm":"node/1798026506","kinds":"shops,supermarkets,tourist_facilities","point":{"lon":-74.393051,"lat":40.461376}},{"xid":"N1833663911","name":"Super Stop & Shop #0809","rate":1,"osm":"node/1833663911","kinds":"shops,supermarkets,tourist_facilities","point":{"lon":-74.485847,"lat":40.511902}},{"xid":"N1860696240","name":"Stop and Shop - East Brunswick","rate":1,"osm":"node/1860696240","kinds":"shops,supermarkets,tourist_facilities","point":{"lon":-74.390991,"lat":40.431992}},{"xid":"N1868863835","name":"Patel Brothers Cash & Carry","rate":1,"osm":"node/1868863835","kinds":"shops,supermarkets,tourist_facilities","point":{"lon":-74.503632,"lat":40.464016}},{"xid":"N1871618961","name":"Village Market","rate":1,"osm":"node/1871618961","kinds":"shops,supermarkets,tourist_facilities","point":{"lon":-74.431053,"lat":40.745274}},{"xid":"N1921032545","name":"Kings","rate":1,"osm":"node/1921032545","kinds":"shops,supermarkets,tourist_facilities","point":{"lon":-74.321754,"lat":40.652378}},{"xid":"N1928469583","name":"Pathmark","rate":1,"osm":"node/1928469583","kinds":"shops,supermarkets,tourist_facilities","point":{"lon":-74.296547,"lat":40.522888}},{"xid":"N1937572526","name":"Acme","rate":1,"osm":"node/1937572526","kinds":"shops,supermarkets,tourist_facilities","point":{"lon":-74.404366,"lat":40.704941}},{"xid":"N2012429820","name":"Acme","rate":1,"osm":"node/2012429820","kinds":"shops,supermarkets,tourist_facilities","point":{"lon":-74.480278,"lat":40.888988}},{"xid":"N2012634288","name":"Redners","rate":1,"osm":"node/2012634288","kinds":"shops,supermarkets,tourist_facilities","point":{"lon":-74.893883,"lat":40.168087}},{"xid":"N2014428152","name":"Bravo Supermarket","rate":1,"osm":"node/2014428152","kinds":"shops,supermarkets,tourist_facilities","point":{"lon":-74.017807,"lat":40.641663}},{"xid":"N2143335207","name":"Trader Joe's","rate":1,"osm":"node/2143335207","kinds":"shops,supermarkets,tourist_facilities","point":{"lon":-74.458344,"lat":40.462879}},{"xid":"N2143349198","name":"Walmart Supercenter","rate":1,"osm":"node/2143349198","kinds":"shops,supermarkets,tourist_facilities","point":{"lon":-74.466316,"lat":40.46188}},{"xid":"N2183010493","name":"Up Market","rate":1,"osm":"node/2183010493","kinds":"shops,supermarkets,tourist_facilities","point":{"lon":-74.009483,"lat":40.707119}},{"xid":"N2184803604","name":"Sunrise Mart","rate":1,"osm":"node/2184803604","kinds":"shops,supermarkets,tourist_facilities","point":{"lon":-74.002579,"lat":40.723259}},{"xid":"N2269212223","name":"Delicious Orchards","rate":1,"osm":"node/2269212223","kinds":"shops,supermarkets,tourist_facilities","point":{"lon":-74.1735,"lat":40.2831}},{"xid":"N2295054390","name":"Whole Earth Center","rate":1,"osm":"node/2295054390","kinds":"shops,supermarkets,tourist_facilities","point":{"lon":-74.644875,"lat":40.354473}},{"xid":"N2346678516","name":"Shoprite of Byram","rate":1,"osm":"node/2346678516","kinds":"shops,supermarkets,tourist_facilities","point":{"lon":-74.718788,"lat":40.934532}},{"xid":"N2352412644","name":"Stop & Shop","rate":1,"osm":"node/2352412644","kinds":"shops,supermarkets,tourist_facilities","point":{"lon":-74.436089,"lat":40.685585}},{"xid":"N2372749763","name":"New York Mart (formerly Hong Kong Supermarket)","rate":1,"osm":"node/2372749763","kinds":"shops,supermarkets,tourist_facilities","point":{"lon":-74.009689,"lat":40.635082}},{"xid":"N2471629393","name":"Jack's Super Foodtown of Wayne","rate":1,"osm":"node/2471629393","kinds":"shops,supermarkets,tourist_facilities","point":{"lon":-74.267967,"lat":40.934181}},{"xid":"N2498439756","name":"Stop&Shop","rate":1,"osm":"node/2498439756","kinds":"shops,supermarkets,tourist_facilities","point":{"lon":-74.782211,"lat":40.301304}},{"xid":"N2526057465","name":"Stop and Shop","rate":1,"osm":"node/2526057465","kinds":"shops,supermarkets,tourist_facilities","point":{"lon":-74.084663,"lat":40.978622}},{"xid":"N2527401772","name":"Fairway Fresh Market","rate":1,"osm":"node/2527401772","kinds":"shops,supermarkets,tourist_facilities","point":{"lon":-74.209755,"lat":40.885029}},{"xid":"N2605527965","name":"Fairway Market","rate":1,"osm":"node/2605527965","kinds":"shops,supermarkets,tourist_facilities","point":{"lon":-74.016968,"lat":40.674385}},{"xid":"N2608927941","name":"Kings","rate":1,"osm":"node/2608927941","kinds":"shops,supermarkets,tourist_facilities","point":{"lon":-74.334442,"lat":40.722397}},{"xid":"N2617877365","name":"Acme","rate":1,"osm":"node/2617877365","kinds":"shops,supermarkets,tourist_facilities","point":{"lon":-74.101807,"lat":40.710602}},{"xid":"N2672281460","name":"Stop & Shop","rate":1,"osm":"node/2672281460","kinds":"shops,supermarkets,tourist_facilities","point":{"lon":-74.282845,"lat":40.968113}},{"xid":"N2680968820","name":"Kings","rate":1,"osm":"node/2680968820","kinds":"shops,supermarkets,tourist_facilities","point":{"lon":-74.276894,"lat":40.731312}},{"xid":"N2773975816","name":"ShopRite","rate":1,"osm":"node/2773975816","kinds":"shops,supermarkets,tourist_facilities","point":{"lon":-74.220757,"lat":40.954372}},{"xid":"N2778236979","name":"Corrado's","rate":1,"osm":"node/2778236979","kinds":"shops,supermarkets,tourist_facilities","point":{"lon":-74.244896,"lat":40.966236}},{"xid":"N2780761838","name":"ShopRite of the Greater Morristown Area","rate":1,"osm":"node/2780761838","kinds":"shops,supermarkets,tourist_facilities","point":{"lon":-74.468872,"lat":40.813866}},{"xid":"N2830643350","name":"Whole Foods Market, Paramus","rate":1,"osm":"node/2830643350","kinds":"shops,supermarkets,tourist_facilities","point":{"lon":-74.057289,"lat":40.913986}},{"xid":"N2851580467","name":"ShopRite","rate":1,"osm":"node/2851580467","kinds":"shops,supermarkets,tourist_facilities","point":{"lon":-74.212128,"lat":40.881874}},{"xid":"N2892746901","name":"M&M Market","rate":1,"osm":"node/2892746901","kinds":"shops,supermarkets,tourist_facilities","point":{"lon":-74.004379,"lat":40.723846}},{"xid":"N3094612698","name":"Key Food","rate":1,"osm":"node/3094612698","kinds":"shops,supermarkets,tourist_facilities","point":{"lon":-74.004669,"lat":40.708733}},{"xid":"N3103821768","name":"Whole Foods Market","rate":1,"osm":"node/3103821768","kinds":"shops,supermarkets,tourist_facilities","point":{"lon":-74.087509,"lat":40.375374}},{"xid":"N3120645417","name":"ShopRite","rate":1,"osm":"node/3120645417","kinds":"shops,supermarkets,tourist_facilities","point":{"lon":-74.084885,"lat":40.879402}},{"xid":"N3124449111","name":"Stop & Shop","rate":1,"osm":"node/3124449111","kinds":"shops,supermarkets,tourist_facilities","point":{"lon":-74.197624,"lat":40.425549}},{"xid":"N3170131366","name":"Whole Foods Market","rate":1,"osm":"node/3170131366","kinds":"shops,supermarkets,tourist_facilities","point":{"lon":-74.405769,"lat":40.753635}},{"xid":"N3236324377","name":"Western Beef","rate":1,"osm":"node/3236324377","kinds":"shops,supermarkets,tourist_facilities","point":{"lon":-74.005737,"lat":40.743004}},{"xid":"N3369418740","name":"Shoprite","rate":1,"osm":"node/3369418740","kinds":"shops,supermarkets,tourist_facilities","point":{"lon":-74.309464,"lat":40.925316}},{"xid":"N3478858825","name":"Shoprite","rate":1,"osm":"node/3478858825","kinds":"shops,supermarkets,tourist_facilities","point":{"lon":-74.528931,"lat":40.279774}},{"xid":"N3482497495","name":"Shoprite","rate":1,"osm":"node/3482497495","kinds":"shops,supermarkets,tourist_facilities","point":{"lon":-74.296677,"lat":40.848251}},{"xid":"N3527096843","name":"Express Supermarket","rate":1,"osm":"node/3527096843","kinds":"shops,supermarkets,tourist_facilities","point":{"lon":-74.292824,"lat":40.676262}},{"xid":"N3572624693","name":"Hong Kong Supermarket","rate":1,"osm":"node/3572624693","kinds":"shops,supermarkets,tourist_facilities","point":{"lon":-74.404655,"lat":40.459824}},{"xid":"N3577188953","name":"Asian Food Market","rate":1,"osm":"node/3577188953","kinds":"shops,supermarkets,tourist_facilities","point":{"lon":-74.437981,"lat":40.553581}},{"xid":"N3616734508","name":"Top Tomato","rate":1,"osm":"node/3616734508","kinds":"shops,supermarkets,tourist_facilities","point":{"lon":-74.236008,"lat":40.517868}},{"xid":"N3627509671","name":"Post Exchange","rate":1,"osm":"node/3627509671","kinds":"shops,supermarkets,tourist_facilities","point":{"lon":-74.028496,"lat":40.608898}},{"xid":"N3654934387","name":"Wawa","rate":1,"osm":"node/3654934387","kinds":"shops,supermarkets,tourist_facilities","point":{"lon":-74.848877,"lat":40.16021}},{"xid":"N3654938990","name":"Walgreens","rate":1,"osm":"node/3654938990","kinds":"shops,supermarkets,tourist_facilities","point":{"lon":-74.840904,"lat":40.165634}},{"xid":"N3783510553","name":"ShopRite","rate":1,"osm":"node/3783510553","kinds":"shops,supermarkets,tourist_facilities","point":{"lon":-74.183952,"lat":40.41925}},{"xid":"N3783592238","name":"Super Foodtown","rate":1,"osm":"node/3783592238","kinds":"shops,supermarkets,tourist_facilities","point":{"lon":-74.102287,"lat":40.424412}},{"xid":"N3784689714","name":"Aldi","rate":1,"osm":"node/3784689714","kinds":"shops,supermarkets,tourist_facilities","point":{"lon":-74.180923,"lat":40.417145}},{"xid":"N3784717551","name":"Lidl","rate":1,"osm":"node/3784717551","kinds":"shops,supermarkets,tourist_facilities","point":{"lon":-74.176506,"lat":40.418301}},{"xid":"N3784837907","name":"Harmony Natural Foods","rate":1,"osm":"node/3784837907","kinds":"shops,supermarkets,tourist_facilities","point":{"lon":-74.126022,"lat":40.404953}},{"xid":"N3784837910","name":"Shoprite","rate":1,"osm":"node/3784837910","kinds":"shops,supermarkets,tourist_facilities","point":{"lon":-74.120293,"lat":40.401733}},{"xid":"N3784913423","name":"Super Stop & Shop","rate":1,"osm":"node/3784913423","kinds":"shops,supermarkets,tourist_facilities","point":{"lon":-74.100349,"lat":40.389908}},{"xid":"N3838319991","name":"Whole Foods Market","rate":1,"osm":"node/3838319991","kinds":"shops,supermarkets,tourist_facilities","point":{"lon":-74.304077,"lat":40.631428}},{"xid":"N4001208957","name":"Walgreens","rate":1,"osm":"node/4001208957","kinds":"shops,supermarkets,tourist_facilities","point":{"lon":-74.93856,"lat":40.235317}},{"xid":"N4316479289","name":"Balady Halal Market","rate":1,"osm":"node/4316479289","kinds":"shops,supermarkets,tourist_facilities","point":{"lon":-74.02179,"lat":40.632008}},{"xid":"N4336472890","name":"Asian Food","rate":1,"osm":"node/4336472890","kinds":"shops,supermarkets,tourist_facilities","point":{"lon":-74.096291,"lat":40.719479}},{"xid":"N4414226400","name":"Kmart","rate":1,"osm":"node/4414226400","kinds":"shops,supermarkets,tourist_facilities","point":{"lon":-74.110718,"lat":40.565525}},{"xid":"N4414226425","name":"Stop & Shop","rate":1,"osm":"node/4414226425","kinds":"shops,supermarkets,tourist_facilities","point":{"lon":-74.114349,"lat":40.563927}},{"xid":"N4485772808","name":"Shoprite","rate":1,"osm":"node/4485772808","kinds":"shops,supermarkets,tourist_facilities","point":{"lon":-74.218651,"lat":40.766502}},{"xid":"N4536378635","name":"Puchu's Grocery & Deli","rate":1,"osm":"node/4536378635","kinds":"shops,supermarkets,tourist_facilities","point":{"lon":-74.061401,"lat":40.712124}},{"xid":"N4552806800","name":"Marrazzo's Thriftway","rate":1,"osm":"node/4552806800","kinds":"shops,supermarkets,tourist_facilities","point":{"lon":-74.80571,"lat":40.267059}},{"xid":"N4633787689","name":"Shoprite","rate":1,"osm":"node/4633787689","kinds":"shops,supermarkets,tourist_facilities","point":{"lon":-74.158119,"lat":40.821796}},{"xid":"N4638024015","name":"Super Market","rate":1,"osm":"node/4638024015","kinds":"shops,supermarkets,tourist_facilities","point":{"lon":-74.448708,"lat":40.483631}},{"xid":"N4677625289","name":"Food Depot Supermarket","rate":1,"osm":"node/4677625289","kinds":"shops,supermarkets,tourist_facilities","point":{"lon":-74.187279,"lat":40.74818}},{"xid":"N4837022661","name":"Albazar","rate":1,"osm":"node/4837022661","kinds":"shops,supermarkets,tourist_facilities","point":{"lon":-74.220169,"lat":40.815636}},{"xid":"N4913346423","name":"Trader Joe's","rate":1,"osm":"node/4913346423","kinds":"shops,supermarkets,tourist_facilities","point":{"lon":-74.029984,"lat":40.753498}},{"xid":"N4940681810","name":"Jitan's Market","rate":1,"osm":"node/4940681810","kinds":"shops,supermarkets,tourist_facilities","point":{"lon":-74.285515,"lat":40.966091}},{"xid":"N5002391373","name":"Whole Foods Market","rate":1,"osm":"node/5002391373","kinds":"shops,supermarkets,tourist_facilities","point":{"lon":-74.170174,"lat":40.740139}},{"xid":"N5039929106","name":"ShopRite","rate":1,"osm":"node/5039929106","kinds":"shops,supermarkets,tourist_facilities","point":{"lon":-74.682587,"lat":40.299366}},{"xid":"N5048950286","name":"Corrado's","rate":1,"osm":"node/5048950286","kinds":"shops,supermarkets,tourist_facilities","point":{"lon":-74.151772,"lat":40.888172}},{"xid":"N5054955037","name":"Asian Food Markets","rate":1,"osm":"node/5054955037","kinds":"shops,supermarkets,tourist_facilities","point":{"lon":-74.576996,"lat":40.327885}},{"xid":"N5148765915","name":"Stop 'n Shop","rate":1,"osm":"node/5148765915","kinds":"shops,supermarkets,tourist_facilities","point":{"lon":-74.156685,"lat":40.61137}},{"xid":"N5156204598","name":"Aqui Market","rate":1,"osm":"node/5156204598","kinds":"shops,supermarkets,tourist_facilities","point":{"lon":-74.098686,"lat":40.685371}},{"xid":"N5195182047","name":"Market At Styer Orchards","rate":1,"osm":"node/5195182047","kinds":"shops,supermarkets,tourist_facilities","point":{"lon":-74.895905,"lat":40.195961}},{"xid":"N5291671304","name":"Acme","rate":1,"osm":"node/5291671304","kinds":"shops,supermarkets,tourist_facilities","point":{"lon":-74.999588,"lat":40.14748}},{"xid":"N5358573957","name":"Whole Foods Market","rate":1,"osm":"node/5358573957","kinds":"shops,supermarkets,tourist_facilities","point":{"lon":-74.042679,"lat":40.739677}},{"xid":"N5360028945","name":"Morton Williams","rate":1,"osm":"node/5360028945","kinds":"shops,supermarkets,tourist_facilities","point":{"lon":-74.032272,"lat":40.729637}},{"xid":"N5367108621","name":"Trader Joe's","rate":1,"osm":"node/5367108621","kinds":"shops,supermarkets,tourist_facilities","point":{"lon":-74.060921,"lat":40.316792}},{"xid":"N5385441221","name":"Health and Harmony","rate":1,"osm":"node/5385441221","kinds":"shops,supermarkets,tourist_facilities","point":{"lon":-74.006363,"lat":40.731922}},{"xid":"N5465552973","name":"C-Store","rate":1,"osm":"node/5465552973","kinds":"shops,supermarkets,tourist_facilities","point":{"lon":-74.427925,"lat":40.758259}},{"xid":"N5517804301","name":"Big Apple Bag Co","rate":1,"osm":"node/5517804301","kinds":"shops,supermarkets,tourist_facilities","point":{"lon":-74.275665,"lat":40.925468}},{"xid":"N5600929822","name":"Holland shopping center","rate":1,"osm":"node/5600929822","kinds":"shops,supermarkets,tourist_facilities","point":{"lon":-74.987396,"lat":40.17384}},{"xid":"N5600967103","name":"CTown","rate":1,"osm":"node/5600967103","kinds":"shops,supermarkets,tourist_facilities","point":{"lon":-74.04509,"lat":40.751926}},{"xid":"N5624326816","name":"MET","rate":1,"osm":"node/5624326816","kinds":"shops,supermarkets,tourist_facilities","point":{"lon":-74.12339,"lat":40.613201}},{"xid":"N5683463636","name":"Phil-Am Raritan","rate":1,"osm":"node/5683463636","kinds":"shops,supermarkets,tourist_facilities","point":{"lon":-74.63385,"lat":40.567337}},{"xid":"N5742164789","name":"KeyFood","rate":1,"osm":"node/5742164789","kinds":"shops,supermarkets,tourist_facilities","point":{"lon":-74.00679,"lat":40.648689}},{"xid":"N5785248682","name":"The Fresh Market","rate":1,"osm":"node/5785248682","kinds":"shops,supermarkets,tourist_facilities","point":{"lon":-74.639389,"lat":40.647198}},{"xid":"N5839908904","name":"Aspen Marketplace","rate":1,"osm":"node/5839908904","kinds":"shops,supermarkets,tourist_facilities","point":{"lon":-74.030396,"lat":40.739704}},{"xid":"N5883225929","name":"Trader Joe's","rate":1,"osm":"node/5883225929","kinds":"shops,supermarkets,tourist_facilities","point":{"lon":-74.165802,"lat":40.589882}},{"xid":"N5885679001","name":"Paramus Food Center","rate":1,"osm":"node/5885679001","kinds":"shops,supermarkets,tourist_facilities","point":{"lon":-74.092484,"lat":40.963028}},{"xid":"N5894426621","name":"Fairway Market","rate":1,"osm":"node/5894426621","kinds":"shops,supermarkets,tourist_facilities","point":{"lon":-74.075226,"lat":40.966759}},{"xid":"N5894609765","name":"Trader Joe's","rate":1,"osm":"node/5894609765","kinds":"shops,supermarkets,tourist_facilities","point":{"lon":-74.391228,"lat":40.789501}},{"xid":"N5930349536","name":"Paramus Food Center","rate":1,"osm":"node/5930349536","kinds":"shops,supermarkets,tourist_facilities","point":{"lon":-74.068085,"lat":40.921478}},{"xid":"N5965061395","name":"Aldi","rate":1,"osm":"node/5965061395","kinds":"shops,supermarkets,tourist_facilities","point":{"lon":-74.036919,"lat":40.773479}},{"xid":"N5978874188","name":"C-Town","rate":1,"osm":"node/5978874188","kinds":"shops,supermarkets,tourist_facilities","point":{"lon":-74.06601,"lat":40.729736}},{"xid":"N6001514294","name":"Giant Farmers Market","rate":1,"osm":"node/6001514294","kinds":"shops,supermarkets,tourist_facilities","point":{"lon":-74.039948,"lat":40.888336}},{"xid":"N6061526982","name":"Acme","rate":1,"osm":"node/6061526982","kinds":"shops,supermarkets,tourist_facilities","point":{"lon":-74.040443,"lat":40.339169}},{"xid":"N6076488651","name":"Farmer's Market","rate":1,"osm":"node/6076488651","kinds":"shops,supermarkets,tourist_facilities","point":{"lon":-74.753761,"lat":40.861168}},{"xid":"N6148154936","name":"Walmart Supercenter","rate":1,"osm":"node/6148154936","kinds":"shops,supermarkets,tourist_facilities","point":{"lon":-74.715515,"lat":40.234371}},{"xid":"N6160054915","name":"ShopRite","rate":1,"osm":"node/6160054915","kinds":"shops,supermarkets,tourist_facilities","point":{"lon":-74.143913,"lat":40.061474}},{"xid":"N6200936385","name":"CTown","rate":1,"osm":"node/6200936385","kinds":"shops,supermarkets,tourist_facilities","point":{"lon":-74.08297,"lat":40.605068}},{"xid":"N6201516486","name":"Met","rate":1,"osm":"node/6201516486","kinds":"shops,supermarkets,tourist_facilities","point":{"lon":-74.082283,"lat":40.598663}},{"xid":"N6210240538","name":"Gristedes","rate":1,"osm":"node/6210240538","kinds":"shops,supermarkets,tourist_facilities","point":{"lon":-74.001175,"lat":40.74712}},{"xid":"N6502943564","name":"Wegmans","rate":1,"osm":"node/6502943564","kinds":"shops,supermarkets,tourist_facilities","point":{"lon":-74.670471,"lat":40.573814}},{"xid":"N6551397225","name":"Ideal Food Basket","rate":1,"osm":"node/6551397225","kinds":"shops,supermarkets,tourist_facilities","point":{"lon":-74.015213,"lat":40.640167}},{"xid":"N6566728887","name":"Trader Joe's","rate":1,"osm":"node/6566728887","kinds":"shops,supermarkets,tourist_facilities","point":{"lon":-74.004837,"lat":40.72575}},{"xid":"W308075102","name":"ShopRite","rate":1,"osm":"way/308075102","kinds":"shops,supermarkets,tourist_facilities","point":{"lon":-74.052513,"lat":40.913708}},{"xid":"W55132704","name":"Aldi","rate":1,"osm":"way/55132704","kinds":"shops,supermarkets,tourist_facilities","point":{"lon":-74.883911,"lat":40.172733}},{"xid":"W173870059","name":"Walmart","rate":1,"osm":"way/173870059","kinds":"shops,supermarkets,tourist_facilities","point":{"lon":-74.457298,"lat":40.809631}},{"xid":"W204460881","name":"Stop & Shop","rate":1,"osm":"way/204460881","kinds":"shops,supermarkets,tourist_facilities","point":{"lon":-74.43972,"lat":40.561089}},{"xid":"W375836520","name":"99  Ranch","rate":1,"osm":"way/375836520","kinds":"shops,supermarkets,tourist_facilities","point":{"lon":-74.052307,"lat":40.718884}},{"xid":"W387967258","name":"Weis Markets","rate":1,"osm":"way/387967258","kinds":"shops,supermarkets,tourist_facilities","point":{"lon":-74.835106,"lat":40.827847}},{"xid":"W465260955","name":"Walmart Supercenter","rate":1,"osm":"way/465260955","kinds":"shops,supermarkets,tourist_facilities","point":{"lon":-74.062553,"lat":40.862541}},{"xid":"W710371573","name":"Walmart Neighborhood Market","rate":1,"osm":"way/710371573","kinds":"shops,supermarkets,tourist_facilities","point":{"lon":-74.715225,"lat":40.234367}},{"xid":"W651849822","name":"Acme Supermarket","rate":1,"osm":"way/651849822","kinds":"shops,supermarkets,tourist_facilities","point":{"lon":-74.263634,"lat":40.219387}},{"xid":"W354356441","name":"Walmart Supercenter","rate":1,"osm":"way/354356441","kinds":"shops,supermarkets,tourist_facilities","point":{"lon":-74.10672,"lat":40.659889}},{"xid":"N505585429","name":"Seabra Foods","rate":1,"osm":"node/505585429","kinds":"shops,supermarkets,tourist_facilities","point":{"lon":-74.272514,"lat":40.645382}},{"xid":"N889585036","name":"Whole Foods Market","rate":1,"osm":"node/889585036","kinds":"shops,supermarkets,tourist_facilities","point":{"lon":-74.011734,"lat":40.715611}},{"xid":"N1798026660","name":"Acme","rate":1,"osm":"node/1798026660","kinds":"shops,supermarkets,tourist_facilities","point":{"lon":-74.424431,"lat":40.44495}},{"xid":"N1834340152","name":"Zeytuna","rate":1,"osm":"node/1834340152","kinds":"shops,supermarkets,tourist_facilities","point":{"lon":-74.007446,"lat":40.708649}},{"xid":"N4483244589","name":"Brookfield Place","rate":1,"osm":"node/4483244589","kinds":"shops,supermarkets,tourist_facilities","point":{"lon":-74.015511,"lat":40.712952}},{"xid":"N4631186171","name":"Shoprite","rate":1,"osm":"node/4631186171","kinds":"shops,supermarkets,tourist_facilities","point":{"lon":-74.312981,"lat":40.467438}},{"xid":"N4826736122","name":"A&J Seabra's Supermarket","rate":1,"osm":"node/4826736122","kinds":"shops,supermarkets,tourist_facilities","point":{"lon":-74.16111,"lat":40.728355}},{"xid":"N4849835858","name":"Kings","rate":1,"osm":"node/4849835858","kinds":"shops,supermarkets,tourist_facilities","point":{"lon":-74.393021,"lat":40.789722}},{"xid":"N4882441814","name":"Câ€‘Town Supermarkets","rate":1,"osm":"node/4882441814","kinds":"shops,supermarkets,tourist_facilities","point":{"lon":-74.121567,"lat":40.608265}},{"xid":"N5026743928","name":"Pennington Quality Market","rate":1,"osm":"node/5026743928","kinds":"shops,supermarkets,tourist_facilities","point":{"lon":-74.797813,"lat":40.326771}},{"xid":"N5315599484","name":"Walmart","rate":1,"osm":"node/5315599484","kinds":"shops,supermarkets,tourist_facilities","point":{"lon":-74.921318,"lat":40.628487}},{"xid":"N5520375419","name":"Gristedes","rate":1,"osm":"node/5520375419","kinds":"shops,supermarkets,tourist_facilities","point":{"lon":-74.017609,"lat":40.708427}},{"xid":"N6149349299","name":"Stew Leonard's","rate":1,"osm":"node/6149349299","kinds":"shops,supermarkets,tourist_facilities","point":{"lon":-74.06823,"lat":40.954674}},{"xid":"N6173538502","name":"Bravo","rate":1,"osm":"node/6173538502","kinds":"shops,supermarkets,tourist_facilities","point":{"lon":-74.084007,"lat":40.718224}},{"xid":"W34858612","name":"Walmart Supercenter","rate":1,"osm":"way/34858612","kinds":"shops,supermarkets,tourist_facilities","point":{"lon":-74.842659,"lat":40.04747}},{"xid":"W74635100","name":"Walmart","rate":1,"osm":"way/74635100","kinds":"shops,supermarkets,tourist_facilities","point":{"lon":-74.562256,"lat":40.907501}},{"xid":"W96402394","name":"ShopRite","rate":1,"osm":"way/96402394","kinds":"shops,supermarkets,tourist_facilities","point":{"lon":-74.293007,"lat":40.567776}},{"xid":"W240841928","name":"Trader Joe's","rate":1,"osm":"way/240841928","kinds":"shops,supermarkets,tourist_facilities","point":{"lon":-74.34993,"lat":40.652348}},{"xid":"W258035473","name":"Kings Supermarket","rate":1,"osm":"way/258035473","kinds":"shops,supermarkets,tourist_facilities","point":{"lon":-74.474945,"lat":40.790714}},{"xid":"W261087275","name":"Wegmans","rate":1,"osm":"way/261087275","kinds":"shops,supermarkets,tourist_facilities","point":{"lon":-74.039963,"lat":40.239571}},{"xid":"W263322018","name":"Aldi","rate":1,"osm":"way/263322018","kinds":"shops,supermarkets,tourist_facilities","point":{"lon":-74.298401,"lat":40.535702}},{"xid":"N6496286908","name":"Krauzer's Food Stores","rate":1,"osm":"node/6496286908","kinds":"shops,supermarkets,tourist_facilities","point":{"lon":-74.107918,"lat":40.951973}},{"xid":"W303801684","name":"Shop Rite","rate":1,"osm":"way/303801684","kinds":"shops,supermarkets,tourist_facilities","point":{"lon":-74.712242,"lat":40.83498}},{"xid":"W311433509","name":"Super Foodtown","rate":1,"osm":"way/311433509","kinds":"shops,supermarkets,tourist_facilities","point":{"lon":-74.06456,"lat":40.33968}},{"xid":"W368376747","name":"Walmart Supercenter","rate":1,"osm":"way/368376747","kinds":"shops,supermarkets,tourist_facilities","point":{"lon":-74.850891,"lat":40.527542}},{"xid":"W379425945","name":"Grand Grocery","rate":1,"osm":"way/379425945","kinds":"shops,supermarkets,tourist_facilities","point":{"lon":-74.174217,"lat":40.911644}},{"xid":"W379425949","name":"Midtown Market","rate":1,"osm":"way/379425949","kinds":"shops,supermarkets,tourist_facilities","point":{"lon":-74.172928,"lat":40.910675}},{"xid":"W379425951","name":"Nunez Grocery","rate":1,"osm":"way/379425951","kinds":"shops,supermarkets,tourist_facilities","point":{"lon":-74.171303,"lat":40.911232}},{"xid":"W393668263","name":"Wegmans","rate":1,"osm":"way/393668263","kinds":"shops,supermarkets,tourist_facilities","point":{"lon":-74.437202,"lat":40.838207}},{"xid":"W448246752","name":"Walmart Supercenter","rate":1,"osm":"way/448246752","kinds":"shops,supermarkets,tourist_facilities","point":{"lon":-74.137566,"lat":40.747665}},{"xid":"W637608168","name":"Walmart Supercenter","rate":1,"osm":"way/637608168","kinds":"shops,supermarkets,tourist_facilities","point":{"lon":-74.085121,"lat":40.225132}},{"xid":"N6495304780","name":"JMart","rate":1,"osm":"node/6495304780","kinds":"shops,supermarkets,tourist_facilities","point":{"lon":-74.119339,"lat":40.980427}},{"xid":"W27081357","name":"ShopRite","rate":1,"osm":"way/27081357","kinds":"shops,supermarkets,tourist_facilities","point":{"lon":-74.036453,"lat":40.749374}},{"xid":"W34364268","name":"Walmart Supercenter","rate":1,"osm":"way/34364268","kinds":"shops,supermarkets,tourist_facilities","point":{"lon":-74.980888,"lat":40.00787}},{"xid":"W74112575","name":"Stop and Shop","rate":1,"osm":"way/74112575","kinds":"shops,supermarkets,tourist_facilities","point":{"lon":-74.463249,"lat":40.842186}},{"xid":"W131199285","name":"McCafferty's","rate":1,"osm":"way/131199285","kinds":"shops,supermarkets,tourist_facilities","point":{"lon":-74.943336,"lat":40.234783}},{"xid":"W150583410","name":"Shoprite","rate":1,"osm":"way/150583410","kinds":"shops,supermarkets,tourist_facilities","point":{"lon":-74.562294,"lat":40.718884}},{"xid":"W152478041","name":"Whole Foods Market","rate":1,"osm":"way/152478041","kinds":"shops,supermarkets,tourist_facilities","point":{"lon":-74.488853,"lat":40.799183}},{"xid":"W187681090","name":"Walmart","rate":1,"osm":"way/187681090","kinds":"shops,supermarkets,tourist_facilities","point":{"lon":-74.376427,"lat":40.531925}},{"xid":"W204146555","name":"Wegmans","rate":1,"osm":"way/204146555","kinds":"shops,supermarkets,tourist_facilities","point":{"lon":-74.296631,"lat":40.548069}},{"xid":"W206502940","name":"Target","rate":1,"osm":"way/206502940","kinds":"shops,supermarkets,tourist_facilities","point":{"lon":-74.426491,"lat":40.548286}},{"xid":"W217745594","name":"Walmart","rate":1,"osm":"way/217745594","kinds":"shops,supermarkets,tourist_facilities","point":{"lon":-74.300919,"lat":40.447929}},{"xid":"W229014484","name":"Whole Foods Market","rate":1,"osm":"way/229014484","kinds":"shops,supermarkets,tourist_facilities","point":{"lon":-74.668503,"lat":40.308155}},{"xid":"W234124512","name":"Walmart Supercenter","rate":1,"osm":"way/234124512","kinds":"shops,supermarkets,tourist_facilities","point":{"lon":-74.042465,"lat":40.792999}},{"xid":"W245567520","name":"Walmart Supercenter","rate":1,"osm":"way/245567520","kinds":"shops,supermarkets,tourist_facilities","point":{"lon":-74.226395,"lat":40.131161}},{"xid":"W247295686","name":"ShopRite","rate":1,"osm":"way/247295686","kinds":"shops,supermarkets,tourist_facilities","point":{"lon":-74.148575,"lat":40.622833}},{"xid":"W248360565","name":"Freddie's Pork Store and Salumeria","rate":1,"osm":"way/248360565","kinds":"shops,supermarkets,tourist_facilities","point":{"lon":-74.165855,"lat":40.544792}},{"xid":"W258220220","name":"Stop & Shop","rate":1,"osm":"way/258220220","kinds":"shops,supermarkets,tourist_facilities","point":{"lon":-74.051201,"lat":40.742779}},{"xid":"W262103219","name":"Aldi","rate":1,"osm":"way/262103219","kinds":"shops,supermarkets,tourist_facilities","point":{"lon":-74.438896,"lat":40.552319}},{"xid":"W285817566","name":"Shoprite","rate":1,"osm":"way/285817566","kinds":"shops,supermarkets,tourist_facilities","point":{"lon":-74.239449,"lat":40.663803}},{"xid":"W286363203","name":"Stop and Shop","rate":1,"osm":"way/286363203","kinds":"shops,supermarkets,tourist_facilities","point":{"lon":-74.439804,"lat":40.316181}},{"xid":"W291401756","name":"Price Saver Marketplace","rate":1,"osm":"way/291401756","kinds":"shops,supermarkets,tourist_facilities","point":{"lon":-74.510551,"lat":40.562801}},{"xid":"W291405681","name":"ALDI","rate":1,"osm":"way/291405681","kinds":"shops,supermarkets,tourist_facilities","point":{"lon":-74.401833,"lat":40.597847}},{"xid":"W294118275","name":"ShopRite","rate":1,"osm":"way/294118275","kinds":"shops,supermarkets,tourist_facilities","point":{"lon":-74.375549,"lat":40.865616}},{"xid":"W317221900","name":"Kings","rate":1,"osm":"way/317221900","kinds":"shops,supermarkets,tourist_facilities","point":{"lon":-74.208191,"lat":40.843536}},{"xid":"W362682016","name":"Best Market","rate":1,"osm":"way/362682016","kinds":"shops,supermarkets,tourist_facilities","point":{"lon":-74.145966,"lat":40.410702}},{"xid":"W363304464","name":"ShopRite","rate":1,"osm":"way/363304464","kinds":"shops,supermarkets,tourist_facilities","point":{"lon":-74.787094,"lat":40.306225}},{"xid":"W379442255","name":"Super Supermarket","rate":1,"osm":"way/379442255","kinds":"shops,supermarkets,tourist_facilities","point":{"lon":-74.173172,"lat":40.920906}},{"xid":"W380071958","name":"Sam's Club","rate":1,"osm":"way/380071958","kinds":"shops,supermarkets,tourist_facilities","point":{"lon":-74.958595,"lat":40.092812}},{"xid":"W381150574","name":"Whole Foods Market","rate":1,"osm":"way/381150574","kinds":"shops,supermarkets,tourist_facilities","point":{"lon":-74.222862,"lat":40.818581}},{"xid":"W387967197","name":"ShopRite","rate":1,"osm":"way/387967197","kinds":"shops,supermarkets,tourist_facilities","point":{"lon":-74.836342,"lat":40.822994}},{"xid":"W387967196","name":"Shoprite","rate":1,"osm":"way/387967196","kinds":"shops,supermarkets,tourist_facilities","point":{"lon":-74.836243,"lat":40.823727}},{"xid":"W410326500","name":"ACME","rate":1,"osm":"way/410326500","kinds":"shops,supermarkets,tourist_facilities","point":{"lon":-74.479744,"lat":40.822319}},{"xid":"W413357161","name":"Walmart","rate":1,"osm":"way/413357161","kinds":"shops,supermarkets,tourist_facilities","point":{"lon":-74.967514,"lat":40.136627}},{"xid":"W455688572","name":"Grocery Store","rate":1,"osm":"way/455688572","kinds":"shops,supermarkets,tourist_facilities","point":{"lon":-74.020317,"lat":40.786453}},{"xid":"W480475139","name":"Super Foodtown","rate":1,"osm":"way/480475139","kinds":"shops,supermarkets,tourist_facilities","point":{"lon":-74.191444,"lat":40.972416}},{"xid":"W485717475","name":"ShopRite","rate":1,"osm":"way/485717475","kinds":"shops,supermarkets,tourist_facilities","point":{"lon":-74.642395,"lat":40.191933}},{"xid":"W543022110","name":"ShopRite","rate":1,"osm":"way/543022110","kinds":"shops,supermarkets,tourist_facilities","point":{"lon":-74.615158,"lat":40.567883}},{"xid":"W543560090","name":"Twin City","rate":1,"osm":"way/543560090","kinds":"shops,supermarkets,tourist_facilities","point":{"lon":-74.418983,"lat":40.61491}},{"xid":"W543911123","name":"Walmart","rate":1,"osm":"way/543911123","kinds":"shops,supermarkets,tourist_facilities","point":{"lon":-74.093857,"lat":40.892208}},{"xid":"W552145549","name":"Fine Fair","rate":1,"osm":"way/552145549","kinds":"shops,supermarkets,tourist_facilities","point":{"lon":-74.042427,"lat":40.755112}},{"xid":"W600917384","name":"Aqui Market","rate":1,"osm":"way/600917384","kinds":"shops,supermarkets,tourist_facilities","point":{"lon":-74.845505,"lat":40.726574}},{"xid":"W616117239","name":"Super Foodtown","rate":1,"osm":"way/616117239","kinds":"shops,supermarkets,tourist_facilities","point":{"lon":-74.061714,"lat":40.134701}},{"xid":"W624286323","name":"99 Ranch Asian Market","rate":1,"osm":"way/624286323","kinds":"shops,supermarkets,tourist_facilities","point":{"lon":-74.028862,"lat":40.909649}},{"xid":"W637587516","name":"Walmart","rate":1,"osm":"way/637587516","kinds":"shops,supermarkets,tourist_facilities","point":{"lon":-74.553284,"lat":40.254005}},{"xid":"W637905661","name":"Walmart Supercenter","rate":1,"osm":"way/637905661","kinds":"shops,supermarkets,tourist_facilities","point":{"lon":-74.842117,"lat":40.81633}},{"xid":"W643272519","name":"Patel Brothers","rate":1,"osm":"way/643272519","kinds":"shops,supermarkets,tourist_facilities","point":{"lon":-74.333321,"lat":40.572765}},{"xid":"W698958702","name":"Whole Foods Market","rate":1,"osm":"way/698958702","kinds":"shops,supermarkets,tourist_facilities","point":{"lon":-74.365944,"lat":40.539841}},{"xid":"N359218220","name":"Acme/Savon","rate":1,"osm":"node/359218220","kinds":"shops,supermarkets,tourist_facilities","point":{"lon":-74.794563,"lat":40.007252}},{"xid":"N559830813","name":"ShopRite","rate":1,"osm":"node/559830813","kinds":"shops,supermarkets,tourist_facilities","point":{"lon":-74.537796,"lat":40.53067}},{"xid":"N708024042","name":"A & P","rate":1,"osm":"node/708024042","kinds":"shops,supermarkets,tourist_facilities","point":{"lon":-74.97406,"lat":40.721085}},{"xid":"N857949885","name":"Kings","rate":1,"osm":"node/857949885","kinds":"shops,supermarkets,tourist_facilities","point":{"lon":-74.225632,"lat":40.833809}},{"xid":"N857949890","name":"Super Foodtown","rate":1,"osm":"node/857949890","kinds":"shops,supermarkets,tourist_facilities","point":{"lon":-74.228783,"lat":40.853897}},{"xid":"N1242675309","name":"Kings","rate":1,"osm":"node/1242675309","kinds":"shops,supermarkets,tourist_facilities","point":{"lon":-74.13839,"lat":40.983948}},{"xid":"N1263410442","name":"Kings Supermarket","rate":1,"osm":"node/1263410442","kinds":"shops,supermarkets,tourist_facilities","point":{"lon":-74.494194,"lat":40.617081}},{"xid":"N1277799181","name":"Acme","rate":1,"osm":"node/1277799181","kinds":"shops,supermarkets,tourist_facilities","point":{"lon":-74.316185,"lat":40.628307}},{"xid":"N1308395387","name":"ACME","rate":1,"osm":"node/1308395387","kinds":"shops,supermarkets,tourist_facilities","point":{"lon":-74.477173,"lat":40.586575}},{"xid":"N1308395398","name":"Farmer's Market","rate":1,"osm":"node/1308395398","kinds":"shops,supermarkets,tourist_facilities","point":{"lon":-74.505852,"lat":40.576912}},{"xid":"N1314522027","name":"D'Agostino","rate":1,"osm":"node/1314522027","kinds":"shops,supermarkets,tourist_facilities","point":{"lon":-74.006645,"lat":40.737194}},{"xid":"N1537790902","name":"PetsMart","rate":1,"osm":"node/1537790902","kinds":"shops,supermarkets,tourist_facilities","point":{"lon":-74.57428,"lat":40.382244}},{"xid":"N1537791083","name":"Target","rate":1,"osm":"node/1537791083","kinds":"shops,supermarkets,tourist_facilities","point":{"lon":-74.575813,"lat":40.381084}},{"xid":"N1622889332","name":"ShopRite Supermarket (CLOSED)","rate":1,"osm":"node/1622889332","kinds":"shops,supermarkets,tourist_facilities","point":{"lon":-74.109924,"lat":40.861221}},{"xid":"N1638693136","name":"Stop & Shop","rate":1,"osm":"node/1638693136","kinds":"shops,supermarkets,tourist_facilities","point":{"lon":-74.362663,"lat":40.595539}},{"xid":"N1698212127","name":"Stop 'N' Shop","rate":1,"osm":"node/1698212127","kinds":"shops,supermarkets,tourist_facilities","point":{"lon":-74.272659,"lat":40.126602}},{"xid":"N1770644634","name":"Trader Joe's","rate":1,"osm":"node/1770644634","kinds":"shops,supermarkets,tourist_facilities","point":{"lon":-74.661087,"lat":40.310593}},{"xid":"N1798026523","name":"Shoprite - North Brunswick","rate":1,"osm":"node/1798026523","kinds":"shops,supermarkets,tourist_facilities","point":{"lon":-74.489693,"lat":40.433762}},{"xid":"N1860755468","name":"Shoprite - North Brunswick","rate":1,"osm":"node/1860755468","kinds":"shops,supermarkets,tourist_facilities","point":{"lon":-74.48941,"lat":40.433773}},{"xid":"N1934389721","name":"ACME","rate":1,"osm":"node/1934389721","kinds":"shops,supermarkets,tourist_facilities","point":{"lon":-74.067604,"lat":40.311275}},{"xid":"N1984175581","name":"Kings","rate":1,"osm":"node/1984175581","kinds":"shops,supermarkets,tourist_facilities","point":{"lon":-74.763939,"lat":40.620129}},{"xid":"N2063681720","name":"H-Mart","rate":1,"osm":"node/2063681720","kinds":"shops,supermarkets,tourist_facilities","point":{"lon":-74.032776,"lat":40.855801}},{"xid":"N2063704598","name":"Shoprite","rate":1,"osm":"node/2063704598","kinds":"shops,supermarkets,tourist_facilities","point":{"lon":-74.034264,"lat":40.862438}},{"xid":"N2151330040","name":"Supremo","rate":1,"osm":"node/2151330040","kinds":"shops,supermarkets,tourist_facilities","point":{"lon":-74.266808,"lat":40.507435}},{"xid":"N2183010465","name":"Gristedes","rate":1,"osm":"node/2183010465","kinds":"shops,supermarkets,tourist_facilities","point":{"lon":-74.007362,"lat":40.707035}},{"xid":"N2352529973","name":"Kings","rate":1,"osm":"node/2352529973","kinds":"shops,supermarkets,tourist_facilities","point":{"lon":-74.47892,"lat":40.66877}},{"xid":"N2358048502","name":"Brooklyn Fare","rate":1,"osm":"node/2358048502","kinds":"shops,supermarkets,tourist_facilities","point":{"lon":-74.007919,"lat":40.73209}},{"xid":"N2805194405","name":"Carlo Russo's Wine and Spirits","rate":1,"osm":"node/2805194405","kinds":"shops,supermarkets,tourist_facilities","point":{"lon":-74.110306,"lat":40.997158}},{"xid":"N2823612559","name":"Trader Joe's","rate":1,"osm":"node/2823612559","kinds":"shops,supermarkets,tourist_facilities","point":{"lon":-74.151398,"lat":40.836552}},{"xid":"N2830434615","name":"H-Mart","rate":1,"osm":"node/2830434615","kinds":"shops,supermarkets,tourist_facilities","point":{"lon":-74.071648,"lat":40.915688}},{"xid":"N2848903414","name":"Acme","rate":1,"osm":"node/2848903414","kinds":"shops,supermarkets,tourist_facilities","point":{"lon":-74.020096,"lat":40.773937}},{"xid":"N3132331319","name":"El Apache Food","rate":1,"osm":"node/3132331319","kinds":"shops,supermarkets,tourist_facilities","point":{"lon":-74.199883,"lat":40.438114}},{"xid":"N3183569385","name":"Stop and Shop","rate":1,"osm":"node/3183569385","kinds":"shops,supermarkets,tourist_facilities","point":{"lon":-74.50679,"lat":40.380379}},{"xid":"N3328376164","name":"ShopRite","rate":1,"osm":"node/3328376164","kinds":"shops,supermarkets,tourist_facilities","point":{"lon":-74.140305,"lat":40.862423}},{"xid":"N3359834945","name":"The Grand","rate":1,"osm":"node/3359834945","kinds":"shops,supermarkets,tourist_facilities","point":{"lon":-74.000999,"lat":40.843269}},{"xid":"N3784717554","name":"Aldi","rate":1,"osm":"node/3784717554","kinds":"shops,supermarkets,tourist_facilities","point":{"lon":-74.18029,"lat":40.420307}},{"xid":"N3784719960","name":"Dearborn Farms","rate":1,"osm":"node/3784719960","kinds":"shops,supermarkets,tourist_facilities","point":{"lon":-74.158829,"lat":40.413925}},{"xid":"N3809227153","name":"Shady Brook Farmer's Market and Deli","rate":1,"osm":"node/3809227153","kinds":"shops,supermarkets,tourist_facilities","point":{"lon":-74.886421,"lat":40.227283}},{"xid":"N3809979388","name":"Acme","rate":1,"osm":"node/3809979388","kinds":"shops,supermarkets,tourist_facilities","point":{"lon":-74.006706,"lat":40.782047}},{"xid":"N4108495532","name":"CTown","rate":1,"osm":"node/4108495532","kinds":"shops,supermarkets,tourist_facilities","point":{"lon":-74.000221,"lat":40.710835}},{"xid":"N4150364015","name":"Pathmark","rate":1,"osm":"node/4150364015","kinds":"shops,supermarkets,tourist_facilities","point":{"lon":-74.144112,"lat":40.55439}},{"xid":"N4150367723","name":"Stop & Shop","rate":1,"osm":"node/4150367723","kinds":"shops,supermarkets,tourist_facilities","point":{"lon":-74.160713,"lat":40.546013}},{"xid":"N4151000102","name":"Food Bazaar Supermarket","rate":1,"osm":"node/4151000102","kinds":"shops,supermarkets,tourist_facilities","point":{"lon":-74.754562,"lat":40.210732}},{"xid":"N4397706291","name":"Eataly","rate":1,"osm":"node/4397706291","kinds":"shops,supermarkets,tourist_facilities","point":{"lon":-74.011917,"lat":40.710056}},{"xid":"N4407735237","name":"Stop & Shop","rate":1,"osm":"node/4407735237","kinds":"shops,supermarkets,tourist_facilities","point":{"lon":-74.166153,"lat":40.576149}},{"xid":"N4412152258","name":"Hudson Market","rate":1,"osm":"node/4412152258","kinds":"shops,supermarkets,tourist_facilities","point":{"lon":-74.002266,"lat":40.750648}},{"xid":"N4412952149","name":"ShopRite","rate":1,"osm":"node/4412952149","kinds":"shops,supermarkets,tourist_facilities","point":{"lon":-74.107437,"lat":40.572063}},{"xid":"N4483244489","name":"Le District","rate":1,"osm":"node/4483244489","kinds":"shops,supermarkets,tourist_facilities","point":{"lon":-74.015694,"lat":40.712372}},{"xid":"N4520194410","name":"Garden Farm Market","rate":1,"osm":"node/4520194410","kinds":"shops,supermarkets,tourist_facilities","point":{"lon":-74.508911,"lat":40.438107}},{"xid":"N4556878490","name":"Acme Market","rate":1,"osm":"node/4556878490","kinds":"shops,supermarkets,tourist_facilities","point":{"lon":-74.04837,"lat":40.122044}},{"xid":"N4561160263","name":"Vidalia y Quisqueya Deli & Grocery","rate":1,"osm":"node/4561160263","kinds":"shops,supermarkets,tourist_facilities","point":{"lon":-74.047485,"lat":40.741898}},{"xid":"N4632246698","name":"Stop & Shop","rate":1,"osm":"node/4632246698","kinds":"shops,supermarkets,tourist_facilities","point":{"lon":-74.026245,"lat":40.981884}},{"xid":"N4632250472","name":"Shoprite","rate":1,"osm":"node/4632250472","kinds":"shops,supermarkets,tourist_facilities","point":{"lon":-74.006607,"lat":40.980629}},{"xid":"N4788723924","name":"Kings Food Markets","rate":1,"osm":"node/4788723924","kinds":"shops,supermarkets,tourist_facilities","point":{"lon":-74.025192,"lat":40.751705}},{"xid":"N4906844821","name":"Shoprite Rochelle Park","rate":1,"osm":"node/4906844821","kinds":"shops,supermarkets,tourist_facilities","point":{"lon":-74.080528,"lat":40.91518}},{"xid":"N5164004621","name":"Amish Market","rate":1,"osm":"node/5164004621","kinds":"shops,supermarkets,tourist_facilities","point":{"lon":-74.010246,"lat":40.713989}},{"xid":"N5192834590","name":"Key Foods","rate":1,"osm":"node/5192834590","kinds":"shops,supermarkets,tourist_facilities","point":{"lon":-74.00647,"lat":40.603821}},{"xid":"N5216907940","name":"ACME Markets","rate":1,"osm":"node/5216907940","kinds":"shops,supermarkets,tourist_facilities","point":{"lon":-74.992989,"lat":40.07946}},{"xid":"N5243570939","name":"Gristedes","rate":1,"osm":"node/5243570939","kinds":"shops,supermarkets,tourist_facilities","point":{"lon":-74.002403,"lat":40.733051}},{"xid":"N5520364133","name":"Gristedes","rate":1,"osm":"node/5520364133","kinds":"shops,supermarkets,tourist_facilities","point":{"lon":-74.016403,"lat":40.710575}},{"xid":"N5520369062","name":"Battery Place Market","rate":1,"osm":"node/5520369062","kinds":"shops,supermarkets,tourist_facilities","point":{"lon":-74.017059,"lat":40.707222}},{"xid":"N5540197483","name":"Shop N Save","rate":1,"osm":"node/5540197483","kinds":"shops,supermarkets,tourist_facilities","point":{"lon":-74.081818,"lat":40.598362}},{"xid":"N5540885451","name":"Middle Eastern Grocery and Deli","rate":1,"osm":"node/5540885451","kinds":"shops,supermarkets,tourist_facilities","point":{"lon":-74.26799,"lat":40.925571}},{"xid":"N5691930537","name":"Lasorpresa","rate":1,"osm":"node/5691930537","kinds":"shops,supermarkets,tourist_facilities","point":{"lon":-74.040993,"lat":40.7626}},{"xid":"N5700091019","name":"Alexa Mini Market","rate":1,"osm":"node/5700091019","kinds":"shops,supermarkets,tourist_facilities","point":{"lon":-74.035065,"lat":40.763485}},{"xid":"N5712495323","name":"BJâ€™s Wholesale Club","rate":1,"osm":"node/5712495323","kinds":"shops,supermarkets,tourist_facilities","point":{"lon":-74.366982,"lat":40.517467}},{"xid":"N5839908906","name":"Basic Foods","rate":1,"osm":"node/5839908906","kinds":"shops,supermarkets,tourist_facilities","point":{"lon":-74.030617,"lat":40.739056}},{"xid":"N5840246950","name":"Rossman Fruits & Vegetables","rate":1,"osm":"node/5840246950","kinds":"shops,supermarkets,tourist_facilities","point":{"lon":-74.000755,"lat":40.661465}},{"xid":"N6008598090","name":"Metropolitan City Market","rate":1,"osm":"node/6008598090","kinds":"shops,supermarkets,tourist_facilities","point":{"lon":-74.030807,"lat":40.617378}},{"xid":"N6042416564","name":"ShopRite","rate":1,"osm":"node/6042416564","kinds":"shops,supermarkets,tourist_facilities","point":{"lon":-74.694656,"lat":40.780499}},{"xid":"N6267462110","name":"Citi Grocer","rate":1,"osm":"node/6267462110","kinds":"shops,supermarkets,tourist_facilities","point":{"lon":-74.205727,"lat":40.662884}},{"xid":"N6540025385","name":"Trader Joe's","rate":1,"osm":"node/6540025385","kinds":"shops,supermarkets,tourist_facilities","point":{"lon":-74.004753,"lat":40.725677}},{"xid":"N6578547057","name":"Elmora Farmers Market","rate":1,"osm":"node/6578547057","kinds":"shops,supermarkets,tourist_facilities","point":{"lon":-74.235168,"lat":40.663448}},{"xid":"N6672795913","name":"Nature's Corner Farmers Market","rate":1,"osm":"node/6672795913","kinds":"shops,supermarkets,tourist_facilities","point":{"lon":-74.018219,"lat":40.286736}},{"xid":"W170285976","name":"Target","rate":1,"osm":"way/170285976","kinds":"shops,supermarkets,tourist_facilities","point":{"lon":-74.541191,"lat":40.277534}},{"xid":"W196085538","name":"Sabzi Mandi","rate":1,"osm":"way/196085538","kinds":"shops,supermarkets,tourist_facilities","point":{"lon":-74.33107,"lat":40.573963}},{"xid":"W201337633","name":"ShopRite","rate":1,"osm":"way/201337633","kinds":"shops,supermarkets,tourist_facilities","point":{"lon":-74.384018,"lat":40.511848}},{"xid":"W202429645","name":"Walmart Supercenter","rate":1,"osm":"way/202429645","kinds":"shops,supermarkets,tourist_facilities","point":{"lon":-74.398842,"lat":40.458954}},{"xid":"W204193705","name":"ShopRite","rate":1,"osm":"way/204193705","kinds":"shops,supermarkets,tourist_facilities","point":{"lon":-74.286987,"lat":40.516949}},{"xid":"W214312194","name":"ShopRite","rate":1,"osm":"way/214312194","kinds":"shops,supermarkets,tourist_facilities","point":{"lon":-74.118713,"lat":40.812019}},{"xid":"W240725143","name":"ShopRite","rate":1,"osm":"way/240725143","kinds":"shops,supermarkets,tourist_facilities","point":{"lon":-74.160362,"lat":40.756775}},{"xid":"W241851896","name":"Target","rate":1,"osm":"way/241851896","kinds":"shops,supermarkets,tourist_facilities","point":{"lon":-74.232613,"lat":40.528717}},{"xid":"W245148175","name":"Stop & Shop","rate":1,"osm":"way/245148175","kinds":"shops,supermarkets,tourist_facilities","point":{"lon":-74.245079,"lat":40.963799}},{"xid":"W248342824","name":"Pastosa Ravioli","rate":1,"osm":"way/248342824","kinds":"shops,supermarkets,tourist_facilities","point":{"lon":-74.165306,"lat":40.545353}},{"xid":"W249013088","name":"Almonte's Food Dynasty","rate":1,"osm":"way/249013088","kinds":"shops,supermarkets,tourist_facilities","point":{"lon":-74.008293,"lat":40.611286}},{"xid":"W256092402","name":"ShopRite","rate":1,"osm":"way/256092402","kinds":"shops,supermarkets,tourist_facilities","point":{"lon":-74.331184,"lat":40.718803}},{"xid":"W264969841","name":"ShopRite","rate":1,"osm":"way/264969841","kinds":"shops,supermarkets,tourist_facilities","point":{"lon":-74.119286,"lat":40.667431}},{"xid":"W272716219","name":"Trader Joe's","rate":1,"osm":"way/272716219","kinds":"shops,supermarkets,tourist_facilities","point":{"lon":-74.242455,"lat":40.961273}},{"xid":"W273132834","name":"Trader Joe's","rate":1,"osm":"way/273132834","kinds":"shops,supermarkets,tourist_facilities","point":{"lon":-74.070648,"lat":40.948284}},{"xid":"W285603242","name":"Walmart","rate":1,"osm":"way/285603242","kinds":"shops,supermarkets,tourist_facilities","point":{"lon":-74.299904,"lat":40.687073}},{"xid":"W295265198","name":"Stop & Shop","rate":1,"osm":"way/295265198","kinds":"shops,supermarkets,tourist_facilities","point":{"lon":-74.412674,"lat":40.755951}},{"xid":"W303801671","name":"Weis Market","rate":1,"osm":"way/303801671","kinds":"shops,supermarkets,tourist_facilities","point":{"lon":-74.706741,"lat":40.83316}},{"xid":"W367161617","name":"Acme Markets","rate":1,"osm":"way/367161617","kinds":"shops,supermarkets,tourist_facilities","point":{"lon":-74.96685,"lat":40.072906}},{"xid":"W371431850","name":"ShopRite","rate":1,"osm":"way/371431850","kinds":"shops,supermarkets,tourist_facilities","point":{"lon":-74.296349,"lat":40.692627}},{"xid":"W379379804","name":"Bangla Town Supermarket","rate":1,"osm":"way/379379804","kinds":"shops,supermarkets,tourist_facilities","point":{"lon":-74.186508,"lat":40.920071}},{"xid":"W379425935","name":"Tana's Food Market","rate":1,"osm":"way/379425935","kinds":"shops,supermarkets,tourist_facilities","point":{"lon":-74.175293,"lat":40.91589}},{"xid":"W379442250","name":"Bravo Supermarket","rate":1,"osm":"way/379442250","kinds":"shops,supermarkets,tourist_facilities","point":{"lon":-74.172348,"lat":40.919292}},{"xid":"W379961745","name":"Lopez Deli & Grocery","rate":1,"osm":"way/379961745","kinds":"shops,supermarkets,tourist_facilities","point":{"lon":-74.167007,"lat":40.903713}},{"xid":"W379961752","name":"C-Town Supermarket","rate":1,"osm":"way/379961752","kinds":"shops,supermarkets,tourist_facilities","point":{"lon":-74.16748,"lat":40.902824}},{"xid":"W396834036","name":"Singh's Farms","rate":1,"osm":"way/396834036","kinds":"shops,supermarkets,tourist_facilities","point":{"lon":-74.050873,"lat":40.743507}},{"xid":"W409649215","name":"Key Food Fresh & Natural","rate":1,"osm":"way/409649215","kinds":"shops,supermarkets,tourist_facilities","point":{"lon":-74.045464,"lat":40.723167}},{"xid":"W420718108","name":"ShopRite","rate":1,"osm":"way/420718108","kinds":"shops,supermarkets,tourist_facilities","point":{"lon":-74.186134,"lat":40.736679}},{"xid":"W455259129","name":"La Fiesta Supermarket","rate":1,"osm":"way/455259129","kinds":"shops,supermarkets,tourist_facilities","point":{"lon":-74.018555,"lat":40.785603}},{"xid":"W459758525","name":"Walmart Supercenter","rate":1,"osm":"way/459758525","kinds":"shops,supermarkets,tourist_facilities","point":{"lon":-74.013527,"lat":40.814098}},{"xid":"W480306469","name":"Gold Valley Supermarket","rate":1,"osm":"way/480306469","kinds":"shops,supermarkets,tourist_facilities","point":{"lon":-74.310593,"lat":40.710114}},{"xid":"W487814341","name":"Walmart Supercenter","rate":1,"osm":"way/487814341","kinds":"shops,supermarkets,tourist_facilities","point":{"lon":-74.822601,"lat":40.142067}},{"xid":"W559774235","name":"Stop & Shop","rate":1,"osm":"way/559774235","kinds":"shops,supermarkets,tourist_facilities","point":{"lon":-74.087936,"lat":40.077892}},{"xid":"W562061048","name":"Universal Market","rate":1,"osm":"way/562061048","kinds":"shops,supermarkets,tourist_facilities","point":{"lon":-74.035713,"lat":40.759624}},{"xid":"W591396336","name":"Fine Fair","rate":1,"osm":"way/591396336","kinds":"shops,supermarkets,tourist_facilities","point":{"lon":-74.028374,"lat":40.772564}},{"xid":"W603533486","name":"The Meat House","rate":1,"osm":"way/603533486","kinds":"shops,supermarkets,tourist_facilities","point":{"lon":-74.355324,"lat":40.718479}},{"xid":"W637591349","name":"Walmart Supercenter","rate":1,"osm":"way/637591349","kinds":"shops,supermarkets,tourist_facilities","point":{"lon":-74.293358,"lat":40.243614}},{"xid":"W637692240","name":"Walmart","rate":1,"osm":"way/637692240","kinds":"shops,supermarkets,tourist_facilities","point":{"lon":-74.247368,"lat":40.612637}},{"xid":"W643272508","name":"Best Way Cash & Carry","rate":1,"osm":"way/643272508","kinds":"shops,supermarkets,tourist_facilities","point":{"lon":-74.331673,"lat":40.572865}},{"xid":"W643272502","name":"Shahnawaz","rate":1,"osm":"way/643272502","kinds":"shops,supermarkets,tourist_facilities","point":{"lon":-74.325974,"lat":40.573936}},{"xid":"W96520748","name":"ShopRite","rate":1,"osm":"way/96520748","kinds":"shops,supermarkets,tourist_facilities","point":{"lon":-74.183517,"lat":40.837524}},{"xid":"W453817217","name":"Giant","rate":1,"osm":"way/453817217","kinds":"shops,supermarkets,tourist_facilities","point":{"lon":-74.885864,"lat":40.134441}},{"xid":"W544222744","name":"ShopRite","rate":1,"osm":"way/544222744","kinds":"shops,supermarkets,tourist_facilities","point":{"lon":-74.664627,"lat":40.226044}},{"xid":"W27111280","name":"ShopRite","rate":1,"osm":"way/27111280","kinds":"shops,supermarkets,tourist_facilities","point":{"lon":-74.040054,"lat":40.722786}},{"xid":"W45791870","name":"Stop & Shop","rate":1,"osm":"way/45791870","kinds":"shops,supermarkets,tourist_facilities","point":{"lon":-74.139961,"lat":40.827507}},{"xid":"W55132765","name":"Sam's Club","rate":1,"osm":"way/55132765","kinds":"shops,supermarkets,tourist_facilities","point":{"lon":-74.887558,"lat":40.171589}},{"xid":"W70604739","name":"Walmart","rate":1,"osm":"way/70604739","kinds":"shops,supermarkets,tourist_facilities","point":{"lon":-74.708305,"lat":40.881786}},{"xid":"W115665616","name":"Stop & Shop","rate":1,"osm":"way/115665616","kinds":"shops,supermarkets,tourist_facilities","point":{"lon":-74.115746,"lat":40.98098}},{"xid":"W131285242","name":"Giant Food Stores #6517","rate":1,"osm":"way/131285242","kinds":"shops,supermarkets,tourist_facilities","point":{"lon":-74.90374,"lat":40.182487}},{"xid":"W151407860","name":"A & P","rate":1,"osm":"way/151407860","kinds":"shops,supermarkets,tourist_facilities","point":{"lon":-74.596634,"lat":40.961311}},{"xid":"N3838430589","name":"BJ's Wholesale","rate":1,"osm":"node/3838430589","kinds":"shops,supermarkets,tourist_facilities","point":{"lon":-74.506836,"lat":40.440556}},{"xid":"N692105419","name":"Giant","rate":1,"osm":"node/692105419","kinds":"shops,supermarkets,tourist_facilities","point":{"lon":-74.9263,"lat":40.216698}},{"xid":"N775230837","name":"ACME","rate":1,"osm":"node/775230837","kinds":"shops,supermarkets,tourist_facilities","point":{"lon":-74.207748,"lat":40.837189}},{"xid":"N616069539","name":"Acme","rate":1,"osm":"node/616069539","kinds":"shops,supermarkets,tourist_facilities","point":{"lon":-74.945183,"lat":40.234638}},{"xid":"W397721764","name":"","rate":0,"osm":"way/397721764","kinds":"shops,supermarkets,tourist_facilities","point":{"lon":-74.572075,"lat":40.827038}},{"xid":"W409876584","name":"","rate":0,"osm":"way/409876584","kinds":"shops,supermarkets,tourist_facilities","point":{"lon":-74.062714,"lat":40.735634}},{"xid":"W420426749","name":"","rate":0,"osm":"way/420426749","kinds":"shops,supermarkets,tourist_facilities","point":{"lon":-74.321777,"lat":40.65234}},{"xid":"W470057913","name":"","rate":0,"osm":"way/470057913","kinds":"shops,supermarkets,tourist_facilities","point":{"lon":-74.202438,"lat":40.669128}},{"xid":"W474947580","name":"","rate":0,"osm":"way/474947580","kinds":"shops,supermarkets,tourist_facilities","point":{"lon":-74.213562,"lat":40.994038}},{"xid":"W546701969","name":"","rate":0,"osm":"way/546701969","kinds":"shops,supermarkets,tourist_facilities","point":{"lon":-74.855324,"lat":40.531181}},{"xid":"W550018279","name":"","rate":0,"osm":"way/550018279","kinds":"shops,supermarkets,tourist_facilities","point":{"lon":-74.99324,"lat":40.079285}},{"xid":"N385047878","name":"","rate":0,"osm":"node/385047878","kinds":"shops,supermarkets,tourist_facilities","point":{"lon":-74.891258,"lat":40.051533}},{"xid":"N388006474","name":"","rate":0,"osm":"node/388006474","kinds":"shops,supermarkets,tourist_facilities","point":{"lon":-74.946045,"lat":40.018841}},{"xid":"N874772141","name":"","rate":0,"osm":"node/874772141","kinds":"shops,supermarkets,tourist_facilities","point":{"lon":-74.24292,"lat":40.659557}},{"xid":"N1002531116","name":"","rate":0,"osm":"node/1002531116","kinds":"shops,supermarkets,tourist_facilities","point":{"lon":-74.077759,"lat":40.710476}},{"xid":"N1028705594","name":"","rate":0,"osm":"node/1028705594","kinds":"shops,supermarkets,tourist_facilities","point":{"lon":-74.304855,"lat":40.242973}},{"xid":"N1277566399","name":"","rate":0,"osm":"node/1277566399","kinds":"shops,supermarkets,tourist_facilities","point":{"lon":-74.245644,"lat":40.618412}},{"xid":"N2076302836","name":"","rate":0,"osm":"node/2076302836","kinds":"shops,supermarkets,tourist_facilities","point":{"lon":-74.385735,"lat":40.407181}},{"xid":"N3218809698","name":"","rate":0,"osm":"node/3218809698","kinds":"shops,supermarkets,tourist_facilities","point":{"lon":-74.007141,"lat":40.6376}},{"xid":"N4226500990","name":"","rate":0,"osm":"node/4226500990","kinds":"shops,supermarkets,tourist_facilities","point":{"lon":-74.204628,"lat":40.731014}},{"xid":"N5628809025","name":"","rate":0,"osm":"node/5628809025","kinds":"shops,supermarkets,tourist_facilities","point":{"lon":-74.002708,"lat":40.722939}},{"xid":"N5872455485","name":"","rate":0,"osm":"node/5872455485","kinds":"shops,supermarkets,tourist_facilities","point":{"lon":-74.20343,"lat":40.672382}},{"xid":"N6524693643","name":"","rate":0,"osm":"node/6524693643","kinds":"shops,supermarkets,tourist_facilities","point":{"lon":-74.394615,"lat":40.505497}},{"xid":"N6672778585","name":"","rate":0,"osm":"node/6672778585","kinds":"shops,supermarkets,tourist_facilities","point":{"lon":-74.001274,"lat":40.819656}},{"xid":"W168556205","name":"","rate":0,"osm":"way/168556205","kinds":"shops,supermarkets,tourist_facilities","point":{"lon":-74.39608,"lat":40.456985}},{"xid":"W168556192","name":"","rate":0,"osm":"way/168556192","kinds":"shops,supermarkets,tourist_facilities","point":{"lon":-74.489845,"lat":40.43362}},{"xid":"W172452898","name":"","rate":0,"osm":"way/172452898","kinds":"shops,supermarkets,tourist_facilities","point":{"lon":-74.59407,"lat":40.336658}},{"xid":"W248483455","name":"","rate":0,"osm":"way/248483455","kinds":"shops,supermarkets,tourist_facilities","point":{"lon":-74.028008,"lat":40.631767}},{"xid":"W453850022","name":"","rate":0,"osm":"way/453850022","kinds":"shops,supermarkets,tourist_facilities","point":{"lon":-74.107964,"lat":40.951736}},{"xid":"W474660309","name":"","rate":0,"osm":"way/474660309","kinds":"shops,supermarkets,tourist_facilities","point":{"lon":-74.142059,"lat":40.901962}},{"xid":"W539568343","name":"","rate":0,"osm":"way/539568343","kinds":"shops,supermarkets,tourist_facilities","point":{"lon":-74.53775,"lat":40.530666}},{"xid":"W621796864","name":"","rate":0,"osm":"way/621796864","kinds":"shops,supermarkets,tourist_facilities","point":{"lon":-74.855125,"lat":40.541714}},{"xid":"N552403432","name":"","rate":0,"osm":"node/552403432","kinds":"shops,supermarkets,tourist_facilities","point":{"lon":-74.833488,"lat":40.189869}},{"xid":"N3816286607","name":"","rate":0,"osm":"node/3816286607","kinds":"shops,supermarkets,tourist_facilities","point":{"lon":-74.284355,"lat":40.031754}},{"xid":"W248316337","name":"","rate":0,"osm":"way/248316337","kinds":"shops,supermarkets,tourist_facilities","point":{"lon":-74.15155,"lat":40.549671}},{"xid":"W543828412","name":"","rate":0,"osm":"way/543828412","kinds":"shops,supermarkets,tourist_facilities","point":{"lon":-74.305161,"lat":40.62904}},{"xid":"W545682492","name":"","rate":0,"osm":"way/545682492","kinds":"shops,supermarkets,tourist_facilities","point":{"lon":-74.854607,"lat":40.495361}},{"xid":"W27080469","name":"","rate":0,"osm":"way/27080469","kinds":"shops,supermarkets,tourist_facilities","point":{"lon":-74.033867,"lat":40.745327}}]