[{"xid":"W582710446","name":"Walmart","rate":1,"osm":"way/582710446","kinds":"shops,supermarkets,tourist_facilities","point":{"lon":-72.711693,"lat":40.924675}},{"xid":"N1075206375","name":"King Kullen","rate":1,"osm":"node/1075206375","kinds":"shops,supermarkets,tourist_facilities","point":{"lon":-72.86277,"lat":40.781754}},{"xid":"N2795064954","name":"Stop n' Shop","rate":1,"osm":"node/2795064954","kinds":"shops,supermarkets,tourist_facilities","point":{"lon":-72.995682,"lat":40.868969}},{"xid":"N2925518909","name":"Weir's Market","rate":1,"osm":"node/2925518909","kinds":"shops,supermarkets,tourist_facilities","point":{"lon":-72.974884,"lat":40.850613}},{"xid":"N4794407724","name":"Lombardi's Love Lane Market","rate":1,"osm":"node/4794407724","kinds":"shops,supermarkets,tourist_facilities","point":{"lon":-72.534637,"lat":40.991898}},{"xid":"N4791881728","name":"Organic Market","rate":1,"osm":"node/4791881728","kinds":"shops,supermarkets,tourist_facilities","point":{"lon":-72.647827,"lat":40.968025}},{"xid":"W228166993","name":"King Kullen Supermarket","rate":1,"osm":"way/228166993","kinds":"shops,supermarkets,tourist_facilities","point":{"lon":-72.519737,"lat":40.878868}},{"xid":"W388151259","name":"Stop & Shop","rate":1,"osm":"way/388151259","kinds":"shops,supermarkets,tourist_facilities","point":{"lon":-72.696571,"lat":40.923664}},{"xid":"W471817189","name":"Citarello's","rate":1,"osm":"way/471817189","kinds":"shops,supermarkets,tourist_facilities","point":{"lon":-72.127235,"lat":40.979469}},{"xid":"N2622752775","name":"Stop & Shop","rate":1,"osm":"node/2622752775","kinds":"shops,supermarkets,tourist_facilities","point":{"lon":-72.953651,"lat":40.80616}},{"xid":"N2699195068","name":"Stop & Shop","rate":1,"osm":"node/2699195068","kinds":"shops,supermarkets,tourist_facilities","point":{"lon":-72.986549,"lat":40.94339}},{"xid":"N3844411008","name":"Waldbaums","rate":1,"osm":"node/3844411008","kinds":"shops,supermarkets,tourist_facilities","point":{"lon":-72.53952,"lat":40.98587}},{"xid":"N3865086969","name":"King Kullen","rate":1,"osm":"node/3865086969","kinds":"shops,supermarkets,tourist_facilities","point":{"lon":-72.839073,"lat":40.943298}},{"xid":"N5443976977","name":"Citarella's","rate":1,"osm":"node/5443976977","kinds":"shops,supermarkets,tourist_facilities","point":{"lon":-72.184502,"lat":40.964054}},{"xid":"N5470104248","name":"Citarella","rate":1,"osm":"node/5470104248","kinds":"shops,supermarkets,tourist_facilities","point":{"lon":-72.388527,"lat":40.887177}},{"xid":"W472765361","name":"Waldbaums","rate":1,"osm":"way/472765361","kinds":"shops,supermarkets,tourist_facilities","point":{"lon":-72.187843,"lat":40.963757}},{"xid":"W545585192","name":"Walmart","rate":1,"osm":"way/545585192","kinds":"shops,supermarkets,tourist_facilities","point":{"lon":-72.947151,"lat":40.880142}},{"xid":"W388094022","name":"","rate":0,"osm":"way/388094022","kinds":"shops,supermarkets,tourist_facilities","point":{"lon":-72.948067,"lat":40.945732}},{"xid":"W388151846","name":"","rate":0,"osm":"way/388151846","kinds":"shops,supermarkets,tourist_facilities","point":{"lon":-72.66452,"lat":40.934616}},{"xid":"W388097390","name":"","rate":0,"osm":"way/388097390","kinds":"shops,supermarkets,tourist_facilities","point":{"lon":-72.674103,"lat":40.932655}}]