[{"xid":"W195066061","name":"WinCo Foods","rate":1,"osm":"way/195066061","kinds":"shops,supermarkets,tourist_facilities","point":{"lon":-112.026405,"lat":40.714115}},{"xid":"W341940762","name":"Smith's Marketplace","rate":1,"osm":"way/341940762","kinds":"shops,supermarkets,tourist_facilities","point":{"lon":-112.027283,"lat":40.611523}},{"xid":"W471922771","name":"Walmart Supercenter","rate":1,"osm":"way/471922771","kinds":"shops,supermarkets,tourist_facilities","point":{"lon":-112.300674,"lat":40.556023}},{"xid":"W476955866","name":"Smiths","rate":1,"osm":"way/476955866","kinds":"shops,supermarkets,tourist_facilities","point":{"lon":-112.025742,"lat":40.684078}},{"xid":"W537785811","name":"Smith's Marketplace","rate":1,"osm":"way/537785811","kinds":"shops,supermarkets,tourist_facilities","point":{"lon":-112.021233,"lat":40.539547}},{"xid":"N1784091644","name":"Macey's Grocery Store","rate":1,"osm":"node/1784091644","kinds":"shops,supermarkets,tourist_facilities","point":{"lon":-112.296127,"lat":40.549393}},{"xid":"N2336213547","name":"Harmons","rate":1,"osm":"node/2336213547","kinds":"shops,supermarkets,tourist_facilities","point":{"lon":-112.007072,"lat":40.639431}},{"xid":"N3101308892","name":"Lucky","rate":1,"osm":"node/3101308892","kinds":"shops,supermarkets,tourist_facilities","point":{"lon":-112.296532,"lat":40.544598}},{"xid":"N3788306860","name":"Colosimo's","rate":1,"osm":"node/3788306860","kinds":"shops,supermarkets,tourist_facilities","point":{"lon":-112.106491,"lat":40.710754}},{"xid":"W33407400","name":"Walmart Supercenter","rate":1,"osm":"way/33407400","kinds":"shops,supermarkets,tourist_facilities","point":{"lon":-112.027252,"lat":40.702114}},{"xid":"N5315596506","name":"Walmart Neighborhood Market","rate":1,"osm":"node/5315596506","kinds":"shops,supermarkets,tourist_facilities","point":{"lon":-112.011513,"lat":40.509163}},{"xid":"W38452034","name":"Walmart Supercenter","rate":1,"osm":"way/38452034","kinds":"shops,supermarkets,tourist_facilities","point":{"lon":-112.026581,"lat":40.635735}},{"xid":"W107999249","name":"Smith's","rate":1,"osm":"way/107999249","kinds":"shops,supermarkets,tourist_facilities","point":{"lon":-112.023613,"lat":40.509392}},{"xid":"W678556835","name":"WinCo Foods","rate":1,"osm":"way/678556835","kinds":"shops,supermarkets,tourist_facilities","point":{"lon":-112.01416,"lat":40.533314}},{"xid":"W712413697","name":"Harmons","rate":1,"osm":"way/712413697","kinds":"shops,supermarkets,tourist_facilities","point":{"lon":-112.002792,"lat":40.509068}},{"xid":"N687891915","name":"Smith's","rate":1,"osm":"node/687891915","kinds":"shops,supermarkets,tourist_facilities","point":{"lon":-112.083717,"lat":40.695362}},{"xid":"N692179529","name":"Ream's","rate":1,"osm":"node/692179529","kinds":"shops,supermarkets,tourist_facilities","point":{"lon":-112.064087,"lat":40.69519}},{"xid":"N2284851239","name":"Soelbergs Market","rate":1,"osm":"node/2284851239","kinds":"shops,supermarkets,tourist_facilities","point":{"lon":-112.45726,"lat":40.6007}},{"xid":"W352654581","name":"Walmart Neighborhood Market","rate":1,"osm":"way/352654581","kinds":"shops,supermarkets,tourist_facilities","point":{"lon":-112.090027,"lat":40.694916}}]