[{"xid":"W311995892","name":"Hannaford","rate":1,"osm":"way/311995892","kinds":"shops,supermarkets,tourist_facilities","point":{"lon":-74.248787,"lat":42.761814}},{"xid":"N2394598553","name":"Price Chopper","rate":1,"osm":"node/2394598553","kinds":"shops,supermarkets,tourist_facilities","point":{"lon":-74.591316,"lat":42.915184}},{"xid":"N6450852075","name":"Freshtown Supermarket","rate":1,"osm":"node/6450852075","kinds":"shops,supermarkets,tourist_facilities","point":{"lon":-74.646637,"lat":42.148277}},{"xid":"W124813128","name":"Walmart Supercenter","rate":1,"osm":"way/124813128","kinds":"shops,supermarkets,tourist_facilities","point":{"lon":-74.183746,"lat":42.964619}},{"xid":"W124815895","name":"Hannaford","rate":1,"osm":"way/124815895","kinds":"shops,supermarkets,tourist_facilities","point":{"lon":-74.185364,"lat":42.967789}},{"xid":"W146689489","name":"Price Chopper","rate":1,"osm":"way/146689489","kinds":"shops,supermarkets,tourist_facilities","point":{"lon":-74.933548,"lat":42.69355}},{"xid":"W304810915","name":"Phoenicia Supermarket","rate":1,"osm":"way/304810915","kinds":"shops,supermarkets,tourist_facilities","point":{"lon":-74.313042,"lat":42.08374}},{"xid":"W573831042","name":"Lawyer's General Store","rate":1,"osm":"way/573831042","kinds":"shops,supermarkets,tourist_facilities","point":{"lon":-74.089462,"lat":42.370026}},{"xid":"W368149427","name":"Walmart Supercenter","rate":1,"osm":"way/368149427","kinds":"shops,supermarkets,tourist_facilities","point":{"lon":-74.455421,"lat":42.682461}},{"xid":"W418383242","name":"ALDI","rate":1,"osm":"way/418383242","kinds":"shops,supermarkets,tourist_facilities","point":{"lon":-74.187897,"lat":42.968433}},{"xid":"N761470539","name":"Great American","rate":1,"osm":"node/761470539","kinds":"shops,supermarkets,tourist_facilities","point":{"lon":-74.432053,"lat":42.314602}},{"xid":"N2408062898","name":"Sunflower Natural Foods Market","rate":1,"osm":"node/2408062898","kinds":"shops,supermarkets,tourist_facilities","point":{"lon":-74.113419,"lat":42.039135}},{"xid":"N2413636929","name":"Boiceville IGA","rate":1,"osm":"node/2413636929","kinds":"shops,supermarkets,tourist_facilities","point":{"lon":-74.267616,"lat":42.006847}},{"xid":"N6450840002","name":"Price Chopper","rate":1,"osm":"node/6450840002","kinds":"shops,supermarkets,tourist_facilities","point":{"lon":-74.922661,"lat":42.265987}},{"xid":"W124813142","name":"Price Chopper","rate":1,"osm":"way/124813142","kinds":"shops,supermarkets,tourist_facilities","point":{"lon":-74.183617,"lat":42.962292}},{"xid":"W124814090","name":"Target","rate":1,"osm":"way/124814090","kinds":"shops,supermarkets,tourist_facilities","point":{"lon":-74.190834,"lat":42.964836}},{"xid":"W146580567","name":"TOPS Friendly Markets","rate":1,"osm":"way/146580567","kinds":"shops,supermarkets,tourist_facilities","point":{"lon":-74.962822,"lat":42.649422}},{"xid":"W702322091","name":"","rate":0,"osm":"way/702322091","kinds":"shops,supermarkets,tourist_facilities","point":{"lon":-74.4319,"lat":42.314667}}]