[{"xid":"W120257722","name":"Willy Street Co-op","rate":2,"osm":"way/120257722","wikidata":"Q8022613","kinds":"shops,supermarkets,tourist_facilities","point":{"lon":-89.362717,"lat":43.083511}},{"xid":"W241293229","name":"Walmart Supercenter","rate":1,"osm":"way/241293229","kinds":"shops,supermarkets,tourist_facilities","point":{"lon":-89.473351,"lat":43.570744}},{"xid":"W288511625","name":"Hy-Vee","rate":1,"osm":"way/288511625","kinds":"shops,supermarkets,tourist_facilities","point":{"lon":-89.47966,"lat":43.013233}},{"xid":"W345776183","name":"Jenifer Street Market","rate":1,"osm":"way/345776183","kinds":"shops,supermarkets,tourist_facilities","point":{"lon":-89.351349,"lat":43.090466}},{"xid":"W429530749","name":"Don Beto Groceries","rate":1,"osm":"way/429530749","kinds":"shops,supermarkets,tourist_facilities","point":{"lon":-89.474197,"lat":43.04491}},{"xid":"W523609080","name":"ALDI","rate":1,"osm":"way/523609080","kinds":"shops,supermarkets,tourist_facilities","point":{"lon":-89.767578,"lat":43.475723}},{"xid":"N711297011","name":"Fresh Market","rate":1,"osm":"node/711297011","kinds":"shops,supermarkets,tourist_facilities","point":{"lon":-89.397659,"lat":43.073002}},{"xid":"N793835400","name":"Festival Foods","rate":1,"osm":"node/793835400","kinds":"shops,supermarkets,tourist_facilities","point":{"lon":-89.770409,"lat":43.473492}},{"xid":"N825750081","name":"Piggly Wiggly","rate":1,"osm":"node/825750081","kinds":"shops,supermarkets,tourist_facilities","point":{"lon":-89.730972,"lat":43.270645}},{"xid":"N845149801","name":"Pick 'n Save","rate":1,"osm":"node/845149801","kinds":"shops,supermarkets,tourist_facilities","point":{"lon":-89.349579,"lat":43.113167}},{"xid":"N848400427","name":"Piggly Wiggly","rate":1,"osm":"node/848400427","kinds":"shops,supermarkets,tourist_facilities","point":{"lon":-89.537277,"lat":43.322407}},{"xid":"N1150202632","name":"Harvest Market","rate":1,"osm":"node/1150202632","kinds":"shops,supermarkets,tourist_facilities","point":{"lon":-89.895386,"lat":43.015518}},{"xid":"N1345804924","name":"Metcalfe's Market","rate":1,"osm":"node/1345804924","kinds":"shops,supermarkets,tourist_facilities","point":{"lon":-89.452797,"lat":43.074135}},{"xid":"N1925695022","name":"Pick & Save","rate":1,"osm":"node/1925695022","kinds":"shops,supermarkets,tourist_facilities","point":{"lon":-89.300003,"lat":43.015873}},{"xid":"N2343944114","name":"Aldi","rate":1,"osm":"node/2343944114","kinds":"shops,supermarkets,tourist_facilities","point":{"lon":-89.478622,"lat":43.015148}},{"xid":"N2969303604","name":"Istanbul Market","rate":1,"osm":"node/2969303604","kinds":"shops,supermarkets,tourist_facilities","point":{"lon":-89.502586,"lat":43.048115}},{"xid":"N3009633842","name":"Millers and Sons","rate":1,"osm":"node/3009633842","kinds":"shops,supermarkets,tourist_facilities","point":{"lon":-89.712807,"lat":43.008949}},{"xid":"N3084751933","name":"Willy St Co-Op North","rate":1,"osm":"node/3084751933","kinds":"shops,supermarkets,tourist_facilities","point":{"lon":-89.362762,"lat":43.127682}},{"xid":"N3254724399","name":"Abarrotes Yuremi","rate":1,"osm":"node/3254724399","kinds":"shops,supermarkets,tourist_facilities","point":{"lon":-89.45649,"lat":43.191814}},{"xid":"N4379916328","name":"Festival Foods","rate":1,"osm":"node/4379916328","kinds":"shops,supermarkets,tourist_facilities","point":{"lon":-89.375061,"lat":43.081432}},{"xid":"N4451276489","name":"Piggly Wiggly","rate":1,"osm":"node/4451276489","kinds":"shops,supermarkets,tourist_facilities","point":{"lon":-89.12075,"lat":43.851105}},{"xid":"N4505620802","name":"Yue-Wah Oriental Foods","rate":1,"osm":"node/4505620802","kinds":"shops,supermarkets,tourist_facilities","point":{"lon":-89.395447,"lat":43.040405}},{"xid":"N5180326899","name":"Viet Hoa Market","rate":1,"osm":"node/5180326899","kinds":"shops,supermarkets,tourist_facilities","point":{"lon":-89.325417,"lat":43.070122}},{"xid":"N5752985962","name":"Walmart Supercenter","rate":1,"osm":"node/5752985962","kinds":"shops,supermarkets,tourist_facilities","point":{"lon":-89.246017,"lat":43.174404}},{"xid":"W398815990","name":"Pick n Save","rate":1,"osm":"way/398815990","kinds":"shops,supermarkets,tourist_facilities","point":{"lon":-89.342422,"lat":43.240009}},{"xid":"W37390087","name":"Pick 'n Save","rate":1,"osm":"way/37390087","kinds":"shops,supermarkets,tourist_facilities","point":{"lon":-89.449348,"lat":43.076538}},{"xid":"W429536330","name":"Pick 'n Save","rate":1,"osm":"way/429536330","kinds":"shops,supermarkets,tourist_facilities","point":{"lon":-89.421272,"lat":43.018486}},{"xid":"W417951775","name":"Metro Market","rate":1,"osm":"way/417951775","kinds":"shops,supermarkets,tourist_facilities","point":{"lon":-89.275871,"lat":43.085346}},{"xid":"W28773270","name":"Walmart Supercenter","rate":1,"osm":"way/28773270","kinds":"shops,supermarkets,tourist_facilities","point":{"lon":-89.349899,"lat":43.042469}},{"xid":"W291570954","name":"Pick 'n Save","rate":1,"osm":"way/291570954","kinds":"shops,supermarkets,tourist_facilities","point":{"lon":-89.396011,"lat":43.052258}},{"xid":"N1925759756","name":"Adams-Friendship County Market","rate":1,"osm":"node/1925759756","kinds":"shops,supermarkets,tourist_facilities","point":{"lon":-89.82019,"lat":43.966457}},{"xid":"W26742645","name":"Walmart","rate":1,"osm":"way/26742645","kinds":"shops,supermarkets,tourist_facilities","point":{"lon":-89.509186,"lat":43.051678}},{"xid":"W26743025","name":"Walmart Supercenter","rate":1,"osm":"way/26743025","kinds":"shops,supermarkets,tourist_facilities","point":{"lon":-89.772522,"lat":43.458363}},{"xid":"W44002200","name":"Pick 'n Save","rate":1,"osm":"way/44002200","kinds":"shops,supermarkets,tourist_facilities","point":{"lon":-89.524742,"lat":43.064926}},{"xid":"W97601627","name":"Pick 'n Save","rate":1,"osm":"way/97601627","kinds":"shops,supermarkets,tourist_facilities","point":{"lon":-89.497955,"lat":43.107647}},{"xid":"W102223754","name":"Midway Foods Asian","rate":1,"osm":"way/102223754","kinds":"shops,supermarkets,tourist_facilities","point":{"lon":-89.400284,"lat":43.063835}},{"xid":"W107771319","name":"Woodman's Eastside","rate":1,"osm":"way/107771319","kinds":"shops,supermarkets,tourist_facilities","point":{"lon":-89.31881,"lat":43.096992}},{"xid":"W37308634","name":"Whole Foods Market","rate":1,"osm":"way/37308634","kinds":"shops,supermarkets,tourist_facilities","point":{"lon":-89.444099,"lat":43.074741}},{"xid":"W44745109","name":"Metcalfe's","rate":1,"osm":"way/44745109","kinds":"shops,supermarkets,tourist_facilities","point":{"lon":-89.511215,"lat":43.058071}},{"xid":"W241952315","name":"Piggly Wiggly","rate":1,"osm":"way/241952315","kinds":"shops,supermarkets,tourist_facilities","point":{"lon":-89.466187,"lat":43.193317}},{"xid":"W315045390","name":"Viking Village Foods","rate":1,"osm":"way/315045390","kinds":"shops,supermarkets,tourist_facilities","point":{"lon":-89.98143,"lat":43.534649}},{"xid":"W499737380","name":"Pick'n Save","rate":1,"osm":"way/499737380","kinds":"shops,supermarkets,tourist_facilities","point":{"lon":-89.204323,"lat":43.181461}},{"xid":"W504570699","name":"Pick 'n Save","rate":1,"osm":"way/504570699","kinds":"shops,supermarkets,tourist_facilities","point":{"lon":-89.262009,"lat":43.186142}},{"xid":"N761533799","name":"Trader Joe's","rate":1,"osm":"node/761533799","kinds":"shops,supermarkets,tourist_facilities","point":{"lon":-89.417282,"lat":43.064995}},{"xid":"N825479767","name":"Sentry","rate":1,"osm":"node/825479767","kinds":"shops,supermarkets,tourist_facilities","point":{"lon":-89.72345,"lat":43.292343}},{"xid":"N956758612","name":"Capitol Centre Market Foods","rate":1,"osm":"node/956758612","kinds":"shops,supermarkets,tourist_facilities","point":{"lon":-89.39003,"lat":43.072689}},{"xid":"N956781814","name":"Hy-Vee","rate":1,"osm":"node/956781814","kinds":"shops,supermarkets,tourist_facilities","point":{"lon":-89.318512,"lat":43.118031}},{"xid":"N1029823134","name":"Piggly Wiggly","rate":1,"osm":"node/1029823134","kinds":"shops,supermarkets,tourist_facilities","point":{"lon":-89.641037,"lat":43.111164}},{"xid":"N2969303603","name":"Bombay Bazaar","rate":1,"osm":"node/2969303603","kinds":"shops,supermarkets,tourist_facilities","point":{"lon":-89.502632,"lat":43.047871}},{"xid":"N3289280963","name":"Willy Street Co-Op","rate":1,"osm":"node/3289280963","kinds":"shops,supermarkets,tourist_facilities","point":{"lon":-89.500381,"lat":43.096489}},{"xid":"N4127108041","name":"Swagat Indian Grocery","rate":1,"osm":"node/4127108041","kinds":"shops,supermarkets,tourist_facilities","point":{"lon":-89.498116,"lat":43.056297}},{"xid":"N4127294889","name":"J&P Fresh Market","rate":1,"osm":"node/4127294889","kinds":"shops,supermarkets,tourist_facilities","point":{"lon":-89.497765,"lat":43.050503}},{"xid":"N4610122622","name":"Abarrotes Yuremi","rate":1,"osm":"node/4610122622","kinds":"shops,supermarkets,tourist_facilities","point":{"lon":-89.487396,"lat":43.103512}},{"xid":"N5264735749","name":"A-Mart Asian Grocery","rate":1,"osm":"node/5264735749","kinds":"shops,supermarkets,tourist_facilities","point":{"lon":-89.475624,"lat":43.050362}},{"xid":"W229842119","name":"Piggly Wiggly","rate":1,"osm":"way/229842119","kinds":"shops,supermarkets,tourist_facilities","point":{"lon":-89.02179,"lat":43.007965}},{"xid":"W289287316","name":"Woodman's","rate":1,"osm":"way/289287316","kinds":"shops,supermarkets,tourist_facilities","point":{"lon":-89.266891,"lat":43.164532}},{"xid":"W302322698","name":"Hy-Vee","rate":1,"osm":"way/302322698","kinds":"shops,supermarkets,tourist_facilities","point":{"lon":-89.471306,"lat":43.050831}},{"xid":"W438081940","name":"Aldi","rate":1,"osm":"way/438081940","kinds":"shops,supermarkets,tourist_facilities","point":{"lon":-89.26561,"lat":43.168125}},{"xid":"W26742793","name":"ALDI","rate":1,"osm":"way/26742793","kinds":"shops,supermarkets,tourist_facilities","point":{"lon":-89.52626,"lat":43.056225}},{"xid":"W43926497","name":"Woodman's","rate":1,"osm":"way/43926497","kinds":"shops,supermarkets,tourist_facilities","point":{"lon":-89.500763,"lat":43.048828}},{"xid":"W43926774","name":"Pick 'n Save","rate":1,"osm":"way/43926774","kinds":"shops,supermarkets,tourist_facilities","point":{"lon":-89.498009,"lat":43.013744}},{"xid":"W64373663","name":"Walmart Supercenter","rate":1,"osm":"way/64373663","kinds":"shops,supermarkets,tourist_facilities","point":{"lon":-89.812088,"lat":43.584854}},{"xid":"W102128126","name":"Luna's Groceries","rate":1,"osm":"way/102128126","kinds":"shops,supermarkets,tourist_facilities","point":{"lon":-89.457443,"lat":43.031845}},{"xid":"W105564832","name":"Pick 'n Save","rate":1,"osm":"way/105564832","kinds":"shops,supermarkets,tourist_facilities","point":{"lon":-89.32251,"lat":43.045734}},{"xid":"W107253266","name":"Walmart Supercenter","rate":1,"osm":"way/107253266","kinds":"shops,supermarkets,tourist_facilities","point":{"lon":-89.312538,"lat":43.110859}}]