[{"xid":"W198802315","name":"Fiesta Foods","rate":1,"osm":"way/198802315","kinds":"shops,supermarkets,tourist_facilities","point":{"lon":-92.264214,"lat":44.447296}},{"xid":"W206928866","name":"Aldi","rate":1,"osm":"way/206928866","kinds":"shops,supermarkets,tourist_facilities","point":{"lon":-92.72345,"lat":44.954468}},{"xid":"W344100729","name":"Aldi","rate":1,"osm":"way/344100729","kinds":"shops,supermarkets,tourist_facilities","point":{"lon":-92.519661,"lat":44.047325}},{"xid":"W583379447","name":"Ptacek's IGA Grocery Store","rate":1,"osm":"way/583379447","kinds":"shops,supermarkets,tourist_facilities","point":{"lon":-92.789337,"lat":44.762459}},{"xid":"N879953499","name":"Silver Lake Foods","rate":1,"osm":"node/879953499","kinds":"shops,supermarkets,tourist_facilities","point":{"lon":-92.461327,"lat":44.037872}},{"xid":"N928649420","name":"Cub Foods","rate":1,"osm":"node/928649420","kinds":"shops,supermarkets,tourist_facilities","point":{"lon":-92.44471,"lat":44.009754}},{"xid":"N938087577","name":"HyVee Food & Drug Store","rate":1,"osm":"node/938087577","kinds":"shops,supermarkets,tourist_facilities","point":{"lon":-92.469872,"lat":44.060047}},{"xid":"N954617461","name":"ALCO","rate":1,"osm":"node/954617461","kinds":"shops,supermarkets,tourist_facilities","point":{"lon":-92.671967,"lat":44.280247}},{"xid":"N1707818953","name":"Europa Grocery Store","rate":1,"osm":"node/1707818953","kinds":"shops,supermarkets,tourist_facilities","point":{"lon":-92.479836,"lat":44.031902}},{"xid":"N1736766182","name":"The Nutrition Shop","rate":1,"osm":"node/1736766182","kinds":"shops,supermarkets,tourist_facilities","point":{"lon":-92.486641,"lat":44.039059}},{"xid":"N1781900797","name":"Scheel's SUPERALU","rate":1,"osm":"node/1781900797","kinds":"shops,supermarkets,tourist_facilities","point":{"lon":-92.036827,"lat":44.37812}},{"xid":"N1795137624","name":"John's SuperValu Foods","rate":1,"osm":"node/1795137624","kinds":"shops,supermarkets,tourist_facilities","point":{"lon":-92.838348,"lat":44.029232}},{"xid":"N2195174236","name":"Fareway","rate":1,"osm":"node/2195174236","kinds":"shops,supermarkets,tourist_facilities","point":{"lon":-92.496025,"lat":44.065018}},{"xid":"N2378445629","name":"Kowalski's","rate":1,"osm":"node/2378445629","kinds":"shops,supermarkets,tourist_facilities","point":{"lon":-92.932915,"lat":44.918053}},{"xid":"N3795835423","name":"Hy-Vee","rate":1,"osm":"node/3795835423","kinds":"shops,supermarkets,tourist_facilities","point":{"lon":-92.52668,"lat":44.065868}},{"xid":"N3840243128","name":"Nilssen's Foods","rate":1,"osm":"node/3840243128","kinds":"shops,supermarkets,tourist_facilities","point":{"lon":-92.476471,"lat":44.731045}},{"xid":"N5150351164","name":"EconoFoods","rate":1,"osm":"node/5150351164","kinds":"shops,supermarkets,tourist_facilities","point":{"lon":-92.586815,"lat":44.56596}},{"xid":"N5577458745","name":"ALDI","rate":1,"osm":"node/5577458745","kinds":"shops,supermarkets,tourist_facilities","point":{"lon":-92.932251,"lat":44.818733}},{"xid":"N5693498242","name":"Ferndale Market","rate":1,"osm":"node/5693498242","kinds":"shops,supermarkets,tourist_facilities","point":{"lon":-92.914215,"lat":44.493427}},{"xid":"N5933844653","name":"Whole Foods Market","rate":1,"osm":"node/5933844653","kinds":"shops,supermarkets,tourist_facilities","point":{"lon":-92.930481,"lat":44.943211}},{"xid":"N6270573813","name":"Fresh Thyme","rate":1,"osm":"node/6270573813","kinds":"shops,supermarkets,tourist_facilities","point":{"lon":-92.486725,"lat":44.023056}},{"xid":"N6535539127","name":"Natural Grocers","rate":1,"osm":"node/6535539127","kinds":"shops,supermarkets,tourist_facilities","point":{"lon":-92.487297,"lat":44.003075}},{"xid":"N6607693787","name":"Coburn's","rate":1,"osm":"node/6607693787","kinds":"shops,supermarkets,tourist_facilities","point":{"lon":-92.844833,"lat":44.713627}},{"xid":"W236322368","name":"Walmart Supercenter","rate":1,"osm":"way/236322368","kinds":"shops,supermarkets,tourist_facilities","point":{"lon":-92.582008,"lat":44.563156}},{"xid":"W200694299","name":"Cub Foods","rate":1,"osm":"way/200694299","kinds":"shops,supermarkets,tourist_facilities","point":{"lon":-92.929893,"lat":44.818344}},{"xid":"W203194760","name":"Hy-Vee","rate":1,"osm":"way/203194760","kinds":"shops,supermarkets,tourist_facilities","point":{"lon":-92.957985,"lat":44.830677}},{"xid":"W159947109","name":"County Market","rate":1,"osm":"way/159947109","kinds":"shops,supermarkets,tourist_facilities","point":{"lon":-92.725494,"lat":44.960285}},{"xid":"W181502897","name":"Walmart Supercenter","rate":1,"osm":"way/181502897","kinds":"shops,supermarkets,tourist_facilities","point":{"lon":-92.891914,"lat":44.741047}},{"xid":"W622499951","name":"Cub Foods","rate":1,"osm":"way/622499951","kinds":"shops,supermarkets,tourist_facilities","point":{"lon":-92.960754,"lat":44.961632}},{"xid":"N441278429","name":"Super Target","rate":1,"osm":"node/441278429","kinds":"shops,supermarkets,tourist_facilities","point":{"lon":-92.50399,"lat":44.062443}},{"xid":"N802192928","name":"Family Fresh","rate":1,"osm":"node/802192928","kinds":"shops,supermarkets,tourist_facilities","point":{"lon":-92.627762,"lat":44.85685}},{"xid":"N922124083","name":"Hy-Vee","rate":1,"osm":"node/922124083","kinds":"shops,supermarkets,tourist_facilities","point":{"lon":-92.481316,"lat":44.030014}},{"xid":"N938905385","name":"Aldi","rate":1,"osm":"node/938905385","kinds":"shops,supermarkets,tourist_facilities","point":{"lon":-92.466316,"lat":44.00589}},{"xid":"N938905387","name":"Hy-Vee","rate":1,"osm":"node/938905387","kinds":"shops,supermarkets,tourist_facilities","point":{"lon":-92.470123,"lat":44.005386}},{"xid":"N977090147","name":"Trader Joe's","rate":1,"osm":"node/977090147","kinds":"shops,supermarkets,tourist_facilities","point":{"lon":-92.481163,"lat":44.000603}},{"xid":"N4160291765","name":"Cub Foods","rate":1,"osm":"node/4160291765","kinds":"shops,supermarkets,tourist_facilities","point":{"lon":-92.935959,"lat":44.939709}},{"xid":"N5200899817","name":"Trader Joe's","rate":1,"osm":"node/5200899817","kinds":"shops,supermarkets,tourist_facilities","point":{"lon":-92.922806,"lat":44.945728}},{"xid":"N6522224049","name":"Walmart Supercenter","rate":1,"osm":"node/6522224049","kinds":"shops,supermarkets,tourist_facilities","point":{"lon":-92.91877,"lat":44.810715}},{"xid":"W261880834","name":"Walmart Supercenter","rate":1,"osm":"way/261880834","kinds":"shops,supermarkets,tourist_facilities","point":{"lon":-92.896866,"lat":44.946327}},{"xid":"W458720251","name":"Dick's Fresh Market","rate":1,"osm":"way/458720251","kinds":"shops,supermarkets,tourist_facilities","point":{"lon":-92.630287,"lat":44.845726}},{"xid":"W530377678","name":"EconoFoods","rate":1,"osm":"way/530377678","kinds":"shops,supermarkets,tourist_facilities","point":{"lon":-92.537331,"lat":44.564144}},{"xid":"W592217758","name":"Rochester Halal Grocery","rate":1,"osm":"way/592217758","kinds":"shops,supermarkets,tourist_facilities","point":{"lon":-92.463478,"lat":44.018635}},{"xid":"W603184400","name":"Ashland Grocery","rate":1,"osm":"way/603184400","kinds":"shops,supermarkets,tourist_facilities","point":{"lon":-92.98661,"lat":44.840225}},{"xid":"W104102233","name":"Family Fresh","rate":1,"osm":"way/104102233","kinds":"shops,supermarkets,tourist_facilities","point":{"lon":-92.726738,"lat":44.964195}},{"xid":"W143807689","name":"Walmart Supercenter","rate":1,"osm":"way/143807689","kinds":"shops,supermarkets,tourist_facilities","point":{"lon":-92.511444,"lat":44.076862}},{"xid":"W148786951","name":"Family Fare","rate":1,"osm":"way/148786951","kinds":"shops,supermarkets,tourist_facilities","point":{"lon":-92.907135,"lat":44.506145}},{"xid":"W152761830","name":"Frito-Lay Thrift Shop & Distribution","rate":1,"osm":"way/152761830","kinds":"shops,supermarkets,tourist_facilities","point":{"lon":-92.557358,"lat":44.036308}},{"xid":"N3442923520","name":"Hy-Vee","rate":1,"osm":"node/3442923520","kinds":"shops,supermarkets,tourist_facilities","point":{"lon":-92.960617,"lat":44.964695}},{"xid":"N2948941905","name":"","rate":0,"osm":"node/2948941905","kinds":"shops,supermarkets,tourist_facilities","point":{"lon":-92.645714,"lat":44.203579}},{"xid":"W125709228","name":"","rate":0,"osm":"way/125709228","kinds":"shops,supermarkets,tourist_facilities","point":{"lon":-92.631393,"lat":44.030258}}]