[{"xid":"W348376235","name":"Grand Organic Market","rate":1,"osm":"way/348376235","kinds":"shops,supermarkets,tourist_facilities","point":{"lon":-93.51416,"lat":47.236301}},{"xid":"W706509683","name":"Super One Foods","rate":1,"osm":"way/706509683","kinds":"shops,supermarkets,tourist_facilities","point":{"lon":-93.791161,"lat":47.333042}},{"xid":"N5636347663","name":"Fred's","rate":1,"osm":"node/5636347663","kinds":"shops,supermarkets,tourist_facilities","point":{"lon":-93.166931,"lat":47.378826}},{"xid":"N6522298231","name":"Fred's","rate":1,"osm":"node/6522298231","kinds":"shops,supermarkets,tourist_facilities","point":{"lon":-93.136604,"lat":47.160667}},{"xid":"W244601296","name":"Aldi Food Market","rate":1,"osm":"way/244601296","kinds":"shops,supermarkets,tourist_facilities","point":{"lon":-93.526085,"lat":47.218872}},{"xid":"W347660983","name":"Walmart Supercenter","rate":1,"osm":"way/347660983","kinds":"shops,supermarkets,tourist_facilities","point":{"lon":-93.525887,"lat":47.201557}},{"xid":"W706515826","name":"Northern Star Foods","rate":1,"osm":"way/706515826","kinds":"shops,supermarkets,tourist_facilities","point":{"lon":-93.794319,"lat":47.333412}},{"xid":"W132549775","name":"Super One Foods","rate":1,"osm":"way/132549775","kinds":"shops,supermarkets,tourist_facilities","point":{"lon":-93.52626,"lat":47.207344}},{"xid":"W132566243","name":"Ogle's Foods","rate":1,"osm":"way/132566243","kinds":"shops,supermarkets,tourist_facilities","point":{"lon":-93.536278,"lat":47.236389}}]