[{"xid":"W460350699","name":"Archie's IGA Plus","rate":1,"osm":"way/460350699","kinds":"shops,supermarkets,tourist_facilities","point":{"lon":-116.559975,"lat":47.314636}},{"xid":"W471651382","name":"Fred Meyer","rate":1,"osm":"way/471651382","kinds":"shops,supermarkets,tourist_facilities","point":{"lon":-116.794907,"lat":47.712456}},{"xid":"N761623335","name":"Albertsons","rate":1,"osm":"node/761623335","kinds":"shops,supermarkets,tourist_facilities","point":{"lon":-116.789787,"lat":47.693729}},{"xid":"N761628782","name":"Stein Bros. IGA","rate":1,"osm":"node/761628782","kinds":"shops,supermarkets,tourist_facilities","point":{"lon":-116.881981,"lat":47.820015}},{"xid":"N2763035343","name":"Stein's Family Foods","rate":1,"osm":"node/2763035343","kinds":"shops,supermarkets,tourist_facilities","point":{"lon":-116.123932,"lat":47.540623}},{"xid":"N3857417697","name":"Benewah Family Foods","rate":1,"osm":"node/3857417697","kinds":"shops,supermarkets,tourist_facilities","point":{"lon":-116.888824,"lat":47.336052}},{"xid":"W683463082","name":"Walmart Supercenter","rate":1,"osm":"way/683463082","kinds":"shops,supermarkets,tourist_facilities","point":{"lon":-116.793282,"lat":47.749001}},{"xid":"W131635707","name":"Safeway 1470","rate":1,"osm":"way/131635707","kinds":"shops,supermarkets,tourist_facilities","point":{"lon":-116.787788,"lat":47.708782}},{"xid":"W151791858","name":"Walmart Supercenter","rate":1,"osm":"way/151791858","kinds":"shops,supermarkets,tourist_facilities","point":{"lon":-116.907127,"lat":47.71381}},{"xid":"N761627194","name":"Super 1 Foods","rate":1,"osm":"node/761627194","kinds":"shops,supermarkets,tourist_facilities","point":{"lon":-116.87693,"lat":47.815815}},{"xid":"N3856963790","name":"Harrison Trading Company","rate":1,"osm":"node/3856963790","kinds":"shops,supermarkets,tourist_facilities","point":{"lon":-116.785812,"lat":47.454098}},{"xid":"N5447227319","name":"Super1","rate":1,"osm":"node/5447227319","kinds":"shops,supermarkets,tourist_facilities","point":{"lon":-116.790512,"lat":47.715992}},{"xid":"W270961086","name":"Walmart Supercenter","rate":1,"osm":"way/270961086","kinds":"shops,supermarkets,tourist_facilities","point":{"lon":-116.186928,"lat":47.544758}},{"xid":"W131635660","name":"Safeway 3295","rate":1,"osm":"way/131635660","kinds":"shops,supermarkets,tourist_facilities","point":{"lon":-116.781761,"lat":47.683037}},{"xid":"W308996376","name":"","rate":0,"osm":"way/308996376","kinds":"shops,supermarkets,tourist_facilities","point":{"lon":-116.76828,"lat":47.673923}}]