[{"xid":"W368524793","name":"Metro","rate":1,"osm":"way/368524793","kinds":"shops,supermarkets,tourist_facilities","point":{"lon":-68.554504,"lat":48.439106}},{"xid":"N1095920524","name":"Marché Richelieu","rate":1,"osm":"node/1095920524","kinds":"shops,supermarkets,tourist_facilities","point":{"lon":-68.707703,"lat":48.372532}},{"xid":"N1344017082","name":"IGA","rate":1,"osm":"node/1344017082","kinds":"shops,supermarkets,tourist_facilities","point":{"lon":-68.199791,"lat":48.587345}},{"xid":"N4668337891","name":"Epicerie André Chassé","rate":1,"osm":"node/4668337891","kinds":"shops,supermarkets,tourist_facilities","point":{"lon":-68.660393,"lat":48.341}},{"xid":"N4673217144","name":"Marché Ste-Luce","rate":1,"osm":"node/4673217144","kinds":"shops,supermarkets,tourist_facilities","point":{"lon":-68.387093,"lat":48.548485}},{"xid":"W94053968","name":"IGA Extra","rate":1,"osm":"way/94053968","kinds":"shops,supermarkets,tourist_facilities","point":{"lon":-68.515915,"lat":48.464272}},{"xid":"N659630864","name":"Metro GP","rate":1,"osm":"node/659630864","kinds":"shops,supermarkets,tourist_facilities","point":{"lon":-68.522148,"lat":48.442764}},{"xid":"N6672933209","name":"Maxi","rate":1,"osm":"node/6672933209","kinds":"shops,supermarkets,tourist_facilities","point":{"lon":-68.513329,"lat":48.467747}},{"xid":"W237318968","name":"COOP St-Fabien","rate":1,"osm":"way/237318968","kinds":"shops,supermarkets,tourist_facilities","point":{"lon":-68.867233,"lat":48.293392}},{"xid":"W31550865","name":"IGA Extra","rate":1,"osm":"way/31550865","kinds":"shops,supermarkets,tourist_facilities","point":{"lon":-68.524269,"lat":48.435009}},{"xid":"W95809014","name":"Super C","rate":1,"osm":"way/95809014","kinds":"shops,supermarkets,tourist_facilities","point":{"lon":-68.498314,"lat":48.455147}}]