[{"xid":"W293724284","name":"Super 1 Foods","rate":1,"osm":"way/293724284","kinds":"shops,supermarkets,tourist_facilities","point":{"lon":-114.28054,"lat":48.211864}},{"xid":"N2290882822","name":"Harvest Foods","rate":1,"osm":"node/2290882822","kinds":"shops,supermarkets,tourist_facilities","point":{"lon":-114.078407,"lat":48.073437}},{"xid":"N2382575729","name":"Super 1 Foods","rate":1,"osm":"node/2382575729","kinds":"shops,supermarkets,tourist_facilities","point":{"lon":-114.209801,"lat":48.369171}},{"xid":"N2928619001","name":"Safeway","rate":1,"osm":"node/2928619001","kinds":"shops,supermarkets,tourist_facilities","point":{"lon":-114.336601,"lat":48.399216}},{"xid":"N3005068063","name":"Super 1 Foods","rate":1,"osm":"node/3005068063","kinds":"shops,supermarkets,tourist_facilities","point":{"lon":-114.332741,"lat":48.395584}},{"xid":"N3357030390","name":"Alpine Village Market","rate":1,"osm":"node/3357030390","kinds":"shops,supermarkets,tourist_facilities","point":{"lon":-114.340485,"lat":48.423733}},{"xid":"N5813463590","name":"Blacktail Grocery","rate":1,"osm":"node/5813463590","kinds":"shops,supermarkets,tourist_facilities","point":{"lon":-114.225876,"lat":48.0173}},{"xid":"N2406457769","name":"Albertsons","rate":1,"osm":"node/2406457769","kinds":"shops,supermarkets,tourist_facilities","point":{"lon":-114.329468,"lat":48.199795}},{"xid":"N2951625835","name":"Markus Foods","rate":1,"osm":"node/2951625835","kinds":"shops,supermarkets,tourist_facilities","point":{"lon":-114.337784,"lat":48.411873}},{"xid":"N4443042536","name":"Super 1 Foods","rate":1,"osm":"node/4443042536","kinds":"shops,supermarkets,tourist_facilities","point":{"lon":-114.310959,"lat":48.200886}},{"xid":"N5315599575","name":"Walmart Supercenter","rate":1,"osm":"node/5315599575","kinds":"shops,supermarkets,tourist_facilities","point":{"lon":-114.326172,"lat":48.23175}},{"xid":"W384946934","name":"Rosauers","rate":1,"osm":"way/384946934","kinds":"shops,supermarkets,tourist_facilities","point":{"lon":-114.302841,"lat":48.178024}},{"xid":"N5750185428","name":"Flathead Health Food","rate":1,"osm":"node/5750185428","kinds":"shops,supermarkets,tourist_facilities","point":{"lon":-114.326401,"lat":48.237221}}]