[{"xid":"W443714815","name":"Del Sol","rate":1,"osm":"way/443714815","kinds":"shops,supermarkets,tourist_facilities","point":{"lon":-101.41523,"lat":26.900194}},{"xid":"W443714817","name":"Fruteria la Hacienda","rate":1,"osm":"way/443714817","kinds":"shops,supermarkets,tourist_facilities","point":{"lon":-101.415878,"lat":26.897541}},{"xid":"W551940040","name":"Super Industrial Gutiérrez","rate":1,"osm":"way/551940040","kinds":"shops,supermarkets,tourist_facilities","point":{"lon":-101.438942,"lat":26.889143}},{"xid":"W555658461","name":"Bodega Aurrera","rate":1,"osm":"way/555658461","kinds":"shops,supermarkets,tourist_facilities","point":{"lon":-101.405701,"lat":26.891672}},{"xid":"N4193191335","name":"Merco","rate":1,"osm":"node/4193191335","kinds":"shops,supermarkets,tourist_facilities","point":{"lon":-101.447235,"lat":26.940435}},{"xid":"N4193226704","name":"Bodega Aurrera","rate":1,"osm":"node/4193226704","kinds":"shops,supermarkets,tourist_facilities","point":{"lon":-101.442696,"lat":26.936722}},{"xid":"N4996326728","name":"Chip's","rate":1,"osm":"node/4996326728","kinds":"shops,supermarkets,tourist_facilities","point":{"lon":-101.476624,"lat":26.97751}},{"xid":"N4996326727","name":"Oxxo","rate":1,"osm":"node/4996326727","kinds":"shops,supermarkets,tourist_facilities","point":{"lon":-101.492622,"lat":26.99839}},{"xid":"N5237802999","name":"La Hacienda","rate":1,"osm":"node/5237802999","kinds":"shops,supermarkets,tourist_facilities","point":{"lon":-101.437645,"lat":26.873659}},{"xid":"N5251748957","name":"Soriana Híper - Monclova","rate":1,"osm":"node/5251748957","kinds":"shops,supermarkets,tourist_facilities","point":{"lon":-101.439331,"lat":26.899879}},{"xid":"N5299807778","name":"Super Gutierrez","rate":1,"osm":"node/5299807778","kinds":"shops,supermarkets,tourist_facilities","point":{"lon":-101.409828,"lat":26.909418}},{"xid":"N5319277724","name":"Soriana","rate":1,"osm":"node/5319277724","kinds":"shops,supermarkets,tourist_facilities","point":{"lon":-101.423508,"lat":26.889244}},{"xid":"N5330083758","name":"Miscelánea Reyes Estrada","rate":1,"osm":"node/5330083758","kinds":"shops,supermarkets,tourist_facilities","point":{"lon":-101.426109,"lat":26.887897}},{"xid":"N5341691780","name":"Merco","rate":1,"osm":"node/5341691780","kinds":"shops,supermarkets,tourist_facilities","point":{"lon":-101.411919,"lat":26.91124}},{"xid":"N5358545380","name":"SUPER LA HACIENDA DEL RIO","rate":1,"osm":"node/5358545380","kinds":"shops,supermarkets,tourist_facilities","point":{"lon":-101.399948,"lat":26.919222}},{"xid":"N5360286369","name":"Bodega Aurrera Del RIO","rate":1,"osm":"node/5360286369","kinds":"shops,supermarkets,tourist_facilities","point":{"lon":-101.403595,"lat":26.926565}},{"xid":"W193051679","name":"Soriana","rate":1,"osm":"way/193051679","kinds":"shops,supermarkets,tourist_facilities","point":{"lon":-101.44043,"lat":26.936934}},{"xid":"W547921356","name":"Sam's Club","rate":1,"osm":"way/547921356","kinds":"shops,supermarkets,tourist_facilities","point":{"lon":-101.416176,"lat":26.93399}},{"xid":"N4996287282","name":"Oxxo","rate":1,"osm":"node/4996287282","kinds":"shops,supermarkets,tourist_facilities","point":{"lon":-101.450623,"lat":26.861242}},{"xid":"N5395299254","name":"Super Jessica","rate":1,"osm":"node/5395299254","kinds":"shops,supermarkets,tourist_facilities","point":{"lon":-101.396973,"lat":26.889894}},{"xid":"W193054663","name":"Walmart","rate":1,"osm":"way/193054663","kinds":"shops,supermarkets,tourist_facilities","point":{"lon":-101.423973,"lat":26.909029}}]