[{'xid': 'W193135523', 'name': 'Bodega Aurrerá', 'rate': 1, 'osm': 'way/193135523', 'kinds': 'shops,supermarkets,tourist_facilities', 'point': {'lon': -100.543114, 'lat': 28.683859}}, {'xid': 'W295201627', 'name': 'H-E-B', 'rate': 1, 'osm': 'way/295201627', 'kinds': 'shops,supermarkets,tourist_facilities', 'point': {'lon': -100.484886, 'lat': 28.710735}}, {'xid': 'N1488112038', 'name': 'Soriana', 'rate': 1, 'osm': 'node/1488112038', 'kinds': 'shops,supermarkets,tourist_facilities', 'point': {'lon': -100.545471, 'lat': 28.685688}}, {'xid': 'N1488216815', 'name': 'Bomer', 'rate': 1, 'osm': 'node/1488216815', 'kinds': 'shops,supermarkets,tourist_facilities', 'point': {'lon': -100.526962, 'lat': 28.705761}}, {'xid': 'N1489214075', 'name': 'Mirador Las Fuentes', 'rate': 1, 'osm': 'node/1489214075', 'kinds': 'shops,supermarkets,tourist_facilities', 'point': {'lon': -100.536041, 'lat': 28.701248}}, {'xid': 'N2162690952', 'name': 'Soriana', 'rate': 1, 'osm': 'node/2162690952', 'kinds': 'shops,supermarkets,tourist_facilities', 'point': {'lon': -100.853165, 'lat': 28.348288}}, {'xid': 'N4518433292', 'name': 'Bomer', 'rate': 1, 'osm': 'node/4518433292', 'kinds': 'shops,supermarkets,tourist_facilities', 'point': {'lon': -100.54763, 'lat': 28.675346}}, {'xid': 'N4518482490', 'name': 'HEB', 'rate': 1, 'osm': 'node/4518482490', 'kinds': 'shops,supermarkets,tourist_facilities', 'point': {'lon': -100.542542, 'lat': 28.701653}}, {'xid': 'N4650403404', 'name': 'Marisela Medellín', 'rate': 1, 'osm': 'node/4650403404', 'kinds': 'shops,supermarkets,tourist_facilities', 'point': {'lon': -100.866806, 'lat': 28.335566}}, {'xid': 'N4650429894', 'name': 'Rosy', 'rate': 1, 'osm': 'node/4650429894', 'kinds': 'shops,supermarkets,tourist_facilities', 'point': {'lon': -100.514656, 'lat': 28.692259}}, {'xid': 'N4650429890', 'name': 'La palma', 'rate': 1, 'osm': 'node/4650429890', 'kinds': 'shops,supermarkets,tourist_facilities', 'point': {'lon': -100.546913, 'lat': 28.651821}}, {'xid': 'N4650449492', 'name': 'Tecate six nezahualcoyotl', 'rate': 1, 'osm': 'node/4650449492', 'kinds': 'shops,supermarkets,tourist_facilities', 'point': {'lon': -100.519897, 'lat': 28.692024}}, {'xid': 'N4650450192', 'name': 'Martha', 'rate': 1, 'osm': 'node/4650450192', 'kinds': 'shops,supermarkets,tourist_facilities', 'point': {'lon': -100.521271, 'lat': 28.698343}}, {'xid': 'N4782995621', 'name': 'Juanito', 'rate': 1, 'osm': 'node/4782995621', 'kinds': 'shops,supermarkets,tourist_facilities', 'point': {'lon': -100.545059, 'lat': 28.640457}}, {'xid': 'N1488241165', 'name': 'El Mirador', 'rate': 1, 'osm': 'node/1488241165', 'kinds': 'shops,supermarkets,tourist_facilities', 'point': {'lon': -100.514069, 'lat': 28.698318}}, {'xid': 'N4650403405', 'name': 'Conasupo jardines del sur', 'rate': 1, 'osm': 'node/4650403405', 'kinds': 'shops,supermarkets,tourist_facilities', 'point': {'lon': -100.85157, 'lat': 28.330723}}, {'xid': 'N4650403407', 'name': 'Abarrotes nico', 'rate': 1, 'osm': 'node/4650403407', 'kinds': 'shops,supermarkets,tourist_facilities', 'point': {'lon': -100.524422, 'lat': 28.674482}}, {'xid': 'N4650403401', 'name': 'Pabys', 'rate': 1, 'osm': 'node/4650403401', 'kinds': 'shops,supermarkets,tourist_facilities', 'point': {'lon': -100.846756, 'lat': 28.354738}}, {'xid': 'N4650403403', 'name': 'Estanquillo el caballito', 'rate': 1, 'osm': 'node/4650403403', 'kinds': 'shops,supermarkets,tourist_facilities', 'point': {'lon': -100.864395, 'lat': 28.34181}}, {'xid': 'N4650403406', 'name': 'Garza lira', 'rate': 1, 'osm': 'node/4650403406', 'kinds': 'shops,supermarkets,tourist_facilities', 'point': {'lon': -100.522202, 'lat': 28.696754}}, {'xid': 'N4650403415', 'name': 'Tecate six centenario', 'rate': 1, 'osm': 'node/4650403415', 'kinds': 'shops,supermarkets,tourist_facilities', 'point': {'lon': -100.516457, 'lat': 28.688343}}, {'xid': 'N4650403411', 'name': 'El Morro', 'rate': 1, 'osm': 'node/4650403411', 'kinds': 'shops,supermarkets,tourist_facilities', 'point': {'lon': -100.518944, 'lat': 28.672333}}, {'xid': 'N4650403414', 'name': 'Morelos', 'rate': 1, 'osm': 'node/4650403414', 'kinds': 'shops,supermarkets,tourist_facilities', 'point': {'lon': -100.507957, 'lat': 28.678913}}, {'xid': 'N4650403408', 'name': 'Ely', 'rate': 1, 'osm': 'node/4650403408', 'kinds': 'shops,supermarkets,tourist_facilities', 'point': {'lon': -100.525185, 'lat': 28.677967}}, {'xid': 'N4650403410', 'name': 'Lety', 'rate': 1, 'osm': 'node/4650403410', 'kinds': 'shops,supermarkets,tourist_facilities', 'point': {'lon': -100.524384, 'lat': 28.679359}}, {'xid': 'N4650403409', 'name': 'La esperanza', 'rate': 1, 'osm': 'node/4650403409', 'kinds': 'shops,supermarkets,tourist_facilities', 'point': {'lon': -100.523781, 'lat': 28.67733}}, {'xid': 'N4650403412', 'name': 'Cuquita', 'rate': 1, 'osm': 'node/4650403412', 'kinds': 'shops,supermarkets,tourist_facilities', 'point': {'lon': -100.51313, 'lat': 28.683224}}, {'xid': 'N4650404691', 'name': 'Abarrotes isaac', 'rate': 1, 'osm': 'node/4650404691', 'kinds': 'shops,supermarkets,tourist_facilities', 'point': {'lon': -100.549141, 'lat': 28.662758}}, {'xid': 'N4650404695', 'name': 'Everstore', 'rate': 1, 'osm': 'node/4650404695', 'kinds': 'shops,supermarkets,tourist_facilities', 'point': {'lon': -100.856018, 'lat': 28.349123}}, {'xid': 'N4650404697', 'name': 'Alex', 'rate': 1, 'osm': 'node/4650404697', 'kinds': 'shops,supermarkets,tourist_facilities', 'point': {'lon': -100.858521, 'lat': 28.344854}}, {'xid': 'N4650404699', 'name': 'Campos', 'rate': 1, 'osm': 'node/4650404699', 'kinds': 'shops,supermarkets,tourist_facilities', 'point': {'lon': -100.521584, 'lat': 28.67396}}, {'xid': 'N4650404704', 'name': 'Abarrotes silvia', 'rate': 1, 'osm': 'node/4650404704', 'kinds': 'shops,supermarkets,tourist_facilities', 'point': {'lon': -100.513695, 'lat': 28.684025}}, {'xid': 'N4650404696', 'name': 'Niño', 'rate': 1, 'osm': 'node/4650404696', 'kinds': 'shops,supermarkets,tourist_facilities', 'point': {'lon': -100.849045, 'lat': 28.345453}}, {'xid': 'N4650404705', 'name': 'Pepes', 'rate': 1, 'osm': 'node/4650404705', 'kinds': 'shops,supermarkets,tourist_facilities', 'point': {'lon': -100.542404, 'lat': 28.681732}}, {'xid': 'N4650404701', 'name': 'Cande', 'rate': 1, 'osm': 'node/4650404701', 'kinds': 'shops,supermarkets,tourist_facilities', 'point': {'lon': -100.523384, 'lat': 28.676905}}, {'xid': 'N4650404698', 'name': 'Cooperativa de consumo justis', 'rate': 1, 'osm': 'node/4650404698', 'kinds': 'shops,supermarkets,tourist_facilities', 'point': {'lon': -100.521446, 'lat': 28.672729}}, {'xid': 'N4650404703', 'name': 'Karla', 'rate': 1, 'osm': 'node/4650404703', 'kinds': 'shops,supermarkets,tourist_facilities', 'point': {'lon': -100.519463, 'lat': 28.674103}}, {'xid': 'N4650404702', 'name': 'Lalo', 'rate': 1, 'osm': 'node/4650404702', 'kinds': 'shops,supermarkets,tourist_facilities', 'point': {'lon': -100.520515, 'lat': 28.679445}}, {'xid': 'N4650404693', 'name': 'Frutería la mexicana', 'rate': 1, 'osm': 'node/4650404693', 'kinds': 'shops,supermarkets,tourist_facilities', 'point': {'lon': -100.851372, 'lat': 28.337679}}, {'xid': 'N4650404700', 'name': 'Evelin', 'rate': 1, 'osm': 'node/4650404700', 'kinds': 'shops,supermarkets,tourist_facilities', 'point': {'lon': -100.522331, 'lat': 28.674034}}, {'xid': 'N4650404694', 'name': 'Suhi house', 'rate': 1, 'osm': 'node/4650404694', 'kinds': 'shops,supermarkets,tourist_facilities', 'point': {'lon': -100.852707, 'lat': 28.338587}}, {'xid': 'N4650404706', 'name': 'María del Rosario', 'rate': 1, 'osm': 'node/4650404706', 'kinds': 'shops,supermarkets,tourist_facilities', 'point': {'lon': -100.535271, 'lat': 28.683237}}, {'xid': 'N4650404708', 'name': 'Ante los laureles', 'rate': 1, 'osm': 'node/4650404708', 'kinds': 'shops,supermarkets,tourist_facilities', 'point': {'lon': -100.553871, 'lat': 28.669296}}, {'xid': 'N4650404707', 'name': 'El guero', 'rate': 1, 'osm': 'node/4650404707', 'kinds': 'shops,supermarkets,tourist_facilities', 'point': {'lon': -100.53405, 'lat': 28.680937}}, {'xid': 'N4650406394', 'name': 'María Guadalupe valdez', 'rate': 1, 'osm': 'node/4650406394', 'kinds': 'shops,supermarkets,tourist_facilities', 'point': {'lon': -100.848938, 'lat': 28.341822}}, {'xid': 'N4650406393', 'name': 'Lopez', 'rate': 1, 'osm': 'node/4650406393', 'kinds': 'shops,supermarkets,tourist_facilities', 'point': {'lon': -100.55735, 'lat': 28.664684}}, {'xid': 'N4650406402', 'name': 'La brisa', 'rate': 1, 'osm': 'node/4650406402', 'kinds': 'shops,supermarkets,tourist_facilities', 'point': {'lon': -100.509033, 'lat': 28.682091}}, {'xid': 'N4650406400', 'name': 'Aca prisi', 'rate': 1, 'osm': 'node/4650406400', 'kinds': 'shops,supermarkets,tourist_facilities', 'point': {'lon': -100.510605, 'lat': 28.685505}}, {'xid': 'N4650406395', 'name': 'Crecencio', 'rate': 1, 'osm': 'node/4650406395', 'kinds': 'shops,supermarkets,tourist_facilities', 'point': {'lon': -100.844193, 'lat': 28.351707}}, {'xid': 'N4650406398', 'name': 'Mayra', 'rate': 1, 'osm': 'node/4650406398', 'kinds': 'shops,supermarkets,tourist_facilities', 'point': {'lon': -100.846138, 'lat': 28.342979}}, {'xid': 'N4650406397', 'name': 'Teresa de Jesús', 'rate': 1, 'osm': 'node/4650406397', 'kinds': 'shops,supermarkets,tourist_facilities', 'point': {'lon': -100.851952, 'lat': 28.351185}}, {'xid': 'N4650406399', 'name': 'Abarrotes allende', 'rate': 1, 'osm': 'node/4650406399', 'kinds': 'shops,supermarkets,tourist_facilities', 'point': {'lon': -100.846748, 'lat': 28.342709}}, {'xid': 'N4650406403', 'name': 'Doña maria', 'rate': 1, 'osm': 'node/4650406403', 'kinds': 'shops,supermarkets,tourist_facilities', 'point': {'lon': -100.521385, 'lat': 28.691936}}, {'xid': 'N4650406406', 'name': 'Mi tiendita', 'rate': 1, 'osm': 'node/4650406406', 'kinds': 'shops,supermarkets,tourist_facilities', 'point': {'lon': -100.534569, 'lat': 28.684792}}, {'xid': 'N4650406405', 'name': 'Super Luna', 'rate': 1, 'osm': 'node/4650406405', 'kinds': 'shops,supermarkets,tourist_facilities', 'point': {'lon': -100.522591, 'lat': 28.699945}}, {'xid': 'N4650406407', 'name': 'Evenezer', 'rate': 1, 'osm': 'node/4650406407', 'kinds': 'shops,supermarkets,tourist_facilities', 'point': {'lon': -100.535179, 'lat': 28.683023}}, {'xid': 'N4650429895', 'name': 'Villa fuerte', 'rate': 1, 'osm': 'node/4650429895', 'kinds': 'shops,supermarkets,tourist_facilities', 'point': {'lon': -100.531853, 'lat': 28.679462}}, {'xid': 'N4650429899', 'name': 'Alfonso Andrade', 'rate': 1, 'osm': 'node/4650429899', 'kinds': 'shops,supermarkets,tourist_facilities', 'point': {'lon': -100.549797, 'lat': 28.661186}}, {'xid': 'N4650429896', 'name': 'Del rio', 'rate': 1, 'osm': 'node/4650429896', 'kinds': 'shops,supermarkets,tourist_facilities', 'point': {'lon': -100.547241, 'lat': 28.66559}}, {'xid': 'N4650449589', 'name': 'Robles', 'rate': 1, 'osm': 'node/4650449589', 'kinds': 'shops,supermarkets,tourist_facilities', 'point': {'lon': -100.54908, 'lat': 28.66193}}, {'xid': 'N4650449497', 'name': 'Luz divina', 'rate': 1, 'osm': 'node/4650449497', 'kinds': 'shops,supermarkets,tourist_facilities', 'point': {'lon': -100.534073, 'lat': 28.68298}}, {'xid': 'N4650449591', 'name': 'Quin borr', 'rate': 1, 'osm': 'node/4650449591', 'kinds': 'shops,supermarkets,tourist_facilities', 'point': {'lon': -100.844803, 'lat': 28.352757}}, {'xid': 'N4650449592', 'name': 'Mario', 'rate': 1, 'osm': 'node/4650449592', 'kinds': 'shops,supermarkets,tourist_facilities', 'point': {'lon': -100.847763, 'lat': 28.354219}}, {'xid': 'N4650449593', 'name': 'Bodega Aurrera', 'rate': 1, 'osm': 'node/4650449593', 'kinds': 'shops,supermarkets,tourist_facilities', 'point': {'lon': -100.852669, 'lat': 28.345169}}, {'xid': 'N4650449594', 'name': 'Casa torres', 'rate': 1, 'osm': 'node/4650449594', 'kinds': 'shops,supermarkets,tourist_facilities', 'point': {'lon': -100.852699, 'lat': 28.345848}}, {'xid': 'N4650449599', 'name': 'Abarrotes Salcedo', 'rate': 1, 'osm': 'node/4650449599', 'kinds': 'shops,supermarkets,tourist_facilities', 'point': {'lon': -100.523102, 'lat': 28.680285}}, {'xid': 'N4650449598', 'name': 'Sarai', 'rate': 1, 'osm': 'node/4650449598', 'kinds': 'shops,supermarkets,tourist_facilities', 'point': {'lon': -100.522881, 'lat': 28.68136}}, {'xid': 'N4650449601', 'name': 'La polka', 'rate': 1, 'osm': 'node/4650449601', 'kinds': 'shops,supermarkets,tourist_facilities', 'point': {'lon': -100.514442, 'lat': 28.682705}}, {'xid': 'N4650449600', 'name': 'Fernandos', 'rate': 1, 'osm': 'node/4650449600', 'kinds': 'shops,supermarkets,tourist_facilities', 'point': {'lon': -100.51651, 'lat': 28.670074}}, {'xid': 'N4650449604', 'name': 'Pancho', 'rate': 1, 'osm': 'node/4650449604', 'kinds': 'shops,supermarkets,tourist_facilities', 'point': {'lon': -100.518761, 'lat': 28.690506}}, {'xid': 'N4650449605', 'name': 'Faby', 'rate': 1, 'osm': 'node/4650449605', 'kinds': 'shops,supermarkets,tourist_facilities', 'point': {'lon': -100.53862, 'lat': 28.688835}}, {'xid': 'N4650449602', 'name': 'Tania', 'rate': 1, 'osm': 'node/4650449602', 'kinds': 'shops,supermarkets,tourist_facilities', 'point': {'lon': -100.516418, 'lat': 28.693623}}, {'xid': 'N4650449597', 'name': 'Sarai', 'rate': 1, 'osm': 'node/4650449597', 'kinds': 'shops,supermarkets,tourist_facilities', 'point': {'lon': -100.52343, 'lat': 28.680748}}, {'xid': 'N4650449608', 'name': 'Los primos', 'rate': 1, 'osm': 'node/4650449608', 'kinds': 'shops,supermarkets,tourist_facilities', 'point': {'lon': -100.532692, 'lat': 28.678072}}, {'xid': 'N4650450189', 'name': 'Piña 2', 'rate': 1, 'osm': 'node/4650450189', 'kinds': 'shops,supermarkets,tourist_facilities', 'point': {'lon': -100.835358, 'lat': 28.34446}}, {'xid': 'N4650450191', 'name': 'José Ángel Esparza', 'rate': 1, 'osm': 'node/4650450191', 'kinds': 'shops,supermarkets,tourist_facilities', 'point': {'lon': -100.536568, 'lat': 28.688807}}, {'xid': 'N4650450193', 'name': 'Abarrotes Anita  (Don cande)', 'rate': 1, 'osm': 'node/4650450193', 'kinds': 'shops,supermarkets,tourist_facilities', 'point': {'lon': -100.544144, 'lat': 28.667271}}, {'xid': 'N4650452890', 'name': 'Super exo', 'rate': 1, 'osm': 'node/4650452890', 'kinds': 'shops,supermarkets,tourist_facilities', 'point': {'lon': -100.538445, 'lat': 28.680429}}, {'xid': 'W479438571', 'name': 'Walmart Supercenter', 'rate': 1, 'osm': 'way/479438571', 'kinds': 'shops,supermarkets,tourist_facilities', 'point': {'lon': -100.480881, 'lat': 28.701111}}, {'xid': 'N1488113045', 'name': 'El Mirador', 'rate': 1, 'osm': 'node/1488113045', 'kinds': 'shops,supermarkets,tourist_facilities', 'point': {'lon': -100.545601, 'lat': 28.683514}}, {'xid': 'N2162721003', 'name': 'Super Gutierrez', 'rate': 1, 'osm': 'node/2162721003', 'kinds': 'shops,supermarkets,tourist_facilities', 'point': {'lon': -100.854126, 'lat': 28.340603}}, {'xid': 'N2162744990', 'name': 'SuperMarket No. 2', 'rate': 1, 'osm': 'node/2162744990', 'kinds': 'shops,supermarkets,tourist_facilities', 'point': {'lon': -100.855537, 'lat': 28.355574}}, {'xid': 'N4650403400', 'name': 'Ruby', 'rate': 1, 'osm': 'node/4650403400', 'kinds': 'shops,supermarkets,tourist_facilities', 'point': {'lon': -100.846367, 'lat': 28.358189}}, {'xid': 'N4650403399', 'name': 'Daniela  (chago)', 'rate': 1, 'osm': 'node/4650403399', 'kinds': 'shops,supermarkets,tourist_facilities', 'point': {'lon': -100.848, 'lat': 28.343523}}, {'xid': 'N4650403396', 'name': 'Leo', 'rate': 1, 'osm': 'node/4650403396', 'kinds': 'shops,supermarkets,tourist_facilities', 'point': {'lon': -100.546432, 'lat': 28.644623}}, {'xid': 'N4650403413', 'name': 'Ana María', 'rate': 1, 'osm': 'node/4650403413', 'kinds': 'shops,supermarkets,tourist_facilities', 'point': {'lon': -100.514351, 'lat': 28.681206}}, {'xid': 'N4650403416', 'name': 'Abarrotes neto', 'rate': 1, 'osm': 'node/4650403416', 'kinds': 'shops,supermarkets,tourist_facilities', 'point': {'lon': -100.516655, 'lat': 28.689367}}, {'xid': 'N4650403417', 'name': 'Estanquillo grecia', 'rate': 1, 'osm': 'node/4650403417', 'kinds': 'shops,supermarkets,tourist_facilities', 'point': {'lon': -100.51989, 'lat': 28.693741}}, {'xid': 'N4650406396', 'name': 'Mini super el payo', 'rate': 1, 'osm': 'node/4650406396', 'kinds': 'shops,supermarkets,tourist_facilities', 'point': {'lon': -100.856697, 'lat': 28.34362}}, {'xid': 'N4650406401', 'name': 'De los reyes', 'rate': 1, 'osm': 'node/4650406401', 'kinds': 'shops,supermarkets,tourist_facilities', 'point': {'lon': -100.507538, 'lat': 28.678431}}, {'xid': 'N4650429892', 'name': 'Abarrotes muños', 'rate': 1, 'osm': 'node/4650429892', 'kinds': 'shops,supermarkets,tourist_facilities', 'point': {'lon': -100.512665, 'lat': 28.679735}}, {'xid': 'N4650429893', 'name': 'El borrado', 'rate': 1, 'osm': 'node/4650429893', 'kinds': 'shops,supermarkets,tourist_facilities', 'point': {'lon': -100.510361, 'lat': 28.684938}}, {'xid': 'N4650449491', 'name': 'Abarrotes lolys', 'rate': 1, 'osm': 'node/4650449491', 'kinds': 'shops,supermarkets,tourist_facilities', 'point': {'lon': -100.514641, 'lat': 28.693604}}, {'xid': 'N4650449494', 'name': 'El mana', 'rate': 1, 'osm': 'node/4650449494', 'kinds': 'shops,supermarkets,tourist_facilities', 'point': {'lon': -100.533707, 'lat': 28.691914}}, {'xid': 'N4650449493', 'name': 'Mary', 'rate': 1, 'osm': 'node/4650449493', 'kinds': 'shops,supermarkets,tourist_facilities', 'point': {'lon': -100.520531, 'lat': 28.690802}}, {'xid': 'N4650449590', 'name': 'Leon  (el alamo)', 'rate': 1, 'osm': 'node/4650449590', 'kinds': 'shops,supermarkets,tourist_facilities', 'point': {'lon': -100.846558, 'lat': 28.349129}}, {'xid': 'N4650449499', 'name': 'Michel', 'rate': 1, 'osm': 'node/4650449499', 'kinds': 'shops,supermarkets,tourist_facilities', 'point': {'lon': -100.550873, 'lat': 28.661821}}]