[{'xid': 'W199571917', 'name': 'H-E-B', 'rate': 1, 'osm': 'way/199571917', 'kinds': 'shops,supermarkets,tourist_facilities', 'point': {'lon': -100.899872, 'lat': 29.366209}}, {'xid': 'W256797447', 'name': 'H-E-B', 'rate': 1, 'osm': 'way/256797447', 'kinds': 'shops,supermarkets,tourist_facilities', 'point': {'lon': -100.897217, 'lat': 29.358059}}, {'xid': 'N2478469524', 'name': 'Walmart Supercenter', 'rate': 1, 'osm': 'node/2478469524', 'kinds': 'shops,supermarkets,tourist_facilities', 'point': {'lon': -100.900833, 'lat': 29.395628}}, {'xid': 'N2883362288', 'name': 'Gutierrez', 'rate': 1, 'osm': 'node/2883362288', 'kinds': 'shops,supermarkets,tourist_facilities', 'point': {'lon': -100.983978, 'lat': 29.32131}}, {'xid': 'N6102721444', 'name': 'SUPER GUTIERREZ SA DE CV', 'rate': 1, 'osm': 'node/6102721444', 'kinds': 'shops,supermarkets,tourist_facilities', 'point': {'lon': -100.933105, 'lat': 29.313187}}, {'xid': 'N6108973442', 'name': 'Super Frutería Martinez', 'rate': 1, 'osm': 'node/6108973442', 'kinds': 'shops,supermarkets,tourist_facilities', 'point': {'lon': -100.998787, 'lat': 29.320602}}, {'xid': 'N6104311767', 'name': 'Bodega Aurrera', 'rate': 1, 'osm': 'node/6104311767', 'kinds': 'shops,supermarkets,tourist_facilities', 'point': {'lon': -100.930031, 'lat': 29.308723}}, {'xid': 'N6104321808', 'name': 'Merco', 'rate': 1, 'osm': 'node/6104321808', 'kinds': 'shops,supermarkets,tourist_facilities', 'point': {'lon': -100.932472, 'lat': 29.308695}}, {'xid': 'N6105687093', 'name': 'Bodega Aurrera', 'rate': 1, 'osm': 'node/6105687093', 'kinds': 'shops,supermarkets,tourist_facilities', 'point': {'lon': -100.976929, 'lat': 29.327932}}, {'xid': 'N6106420859', 'name': 'Súper Gutiérrez', 'rate': 1, 'osm': 'node/6106420859', 'kinds': 'shops,supermarkets,tourist_facilities', 'point': {'lon': -100.954544, 'lat': 29.321207}}]