[{'xid': 'W201790035', 'name': 'Walmart Supercenter', 'rate': 1, 'osm': 'way/201790035', 'kinds': 'shops,supermarkets,tourist_facilities', 'point': {'lon': -90.468498, 'lat': 31.581573}}, {'xid': 'W529880369', 'name': 'Piggly Wiggly', 'rate': 1, 'osm': 'way/529880369', 'kinds': 'shops,supermarkets,tourist_facilities', 'point': {'lon': -90.44648, 'lat': 31.581621}}, {'xid': 'W700747745', 'name': 'Dirt Chip', 'rate': 1, 'osm': 'way/700747745', 'kinds': 'shops,supermarkets,tourist_facilities', 'point': {'lon': -90.448586, 'lat': 31.58231}}, {'xid': 'N2875242334', 'name': "Ramey's Marketplace", 'rate': 1, 'osm': 'node/2875242334', 'kinds': 'shops,supermarkets,tourist_facilities', 'point': {'lon': -90.109016, 'lat': 31.552824}}, {'xid': 'N5315594651', 'name': 'Walmart Supercenter', 'rate': 1, 'osm': 'node/5315594651', 'kinds': 'shops,supermarkets,tourist_facilities', 'point': {'lon': -90.40934, 'lat': 31.87142}}, {'xid': 'N5315602308', 'name': 'Walmart Supercenter', 'rate': 1, 'osm': 'node/5315602308', 'kinds': 'shops,supermarkets,tourist_facilities', 'point': {'lon': -90.473305, 'lat': 31.263639}}, {'xid': 'W529880363', 'name': "FRED'S", 'rate': 1, 'osm': 'way/529880363', 'kinds': 'shops,supermarkets,tourist_facilities', 'point': {'lon': -90.469994, 'lat': 31.580715}}]