[{'xid': 'N5114015512', 'name': 'Winn-Dixie', 'rate': 1, 'osm': 'node/5114015512', 'kinds': 'shops,supermarkets,tourist_facilities', 'point': {'lon': -88.676926, 'lat': 32.412407}}, {'xid': 'N6299588669', 'name': 'NEX', 'rate': 1, 'osm': 'node/6299588669', 'kinds': 'shops,supermarkets,tourist_facilities', 'point': {'lon': -88.608459, 'lat': 32.547318}}, {'xid': 'N6299588667', 'name': 'Commisary', 'rate': 1, 'osm': 'node/6299588667', 'kinds': 'shops,supermarkets,tourist_facilities', 'point': {'lon': -88.607697, 'lat': 32.545628}}, {'xid': 'N5315598149', 'name': 'Walmart Neighborhood Market', 'rate': 1, 'osm': 'node/5315598149', 'kinds': 'shops,supermarkets,tourist_facilities', 'point': {'lon': -88.681099, 'lat': 32.391899}}, {'xid': 'N5315601789', 'name': 'Walmart Supercenter', 'rate': 1, 'osm': 'node/5315601789', 'kinds': 'shops,supermarkets,tourist_facilities', 'point': {'lon': -88.748253, 'lat': 32.387318}}, {'xid': 'N5315594645', 'name': 'Walmart Supercenter', 'rate': 1, 'osm': 'node/5315594645', 'kinds': 'shops,supermarkets,tourist_facilities', 'point': {'lon': -88.683121, 'lat': 32.354488}}]