[{'xid': 'W406782566', 'name': 'Twin City Grocery', 'rate': 1, 'osm': 'way/406782566', 'kinds': 'shops,supermarkets,tourist_facilities', 'point': {'lon': -82.158905, 'lat': 32.584911}}, {'xid': 'N5315597560', 'name': 'Walmart Supercenter', 'rate': 1, 'osm': 'node/5315597560', 'kinds': 'shops,supermarkets,tourist_facilities', 'point': {'lon': -82.972252, 'lat': 32.551231}}, {'xid': 'W555053719', 'name': 'Harveys', 'rate': 1, 'osm': 'way/555053719', 'kinds': 'shops,supermarkets,tourist_facilities', 'point': {'lon': -82.812096, 'lat': 32.978771}}, {'xid': 'W549579421', 'name': 'Walmart Supercenter', 'rate': 1, 'osm': 'way/549579421', 'kinds': 'shops,supermarkets,tourist_facilities', 'point': {'lon': -82.362267, 'lat': 32.202194}}, {'xid': 'W555053730', 'name': 'IGA', 'rate': 1, 'osm': 'way/555053730', 'kinds': 'shops,supermarkets,tourist_facilities', 'point': {'lon': -82.810585, 'lat': 32.971912}}, {'xid': 'N5296246789', 'name': 'Enmark Gas Station', 'rate': 1, 'osm': 'node/5296246789', 'kinds': 'shops,supermarkets,tourist_facilities', 'point': {'lon': -82.396446, 'lat': 32.211243}}, {'xid': 'N5298105235', 'name': "Fred's Store", 'rate': 1, 'osm': 'node/5298105235', 'kinds': 'shops,supermarkets,tourist_facilities', 'point': {'lon': -82.119331, 'lat': 32.084133}}, {'xid': 'N5315602309', 'name': 'Walmart Supercenter', 'rate': 1, 'osm': 'node/5315602309', 'kinds': 'shops,supermarkets,tourist_facilities', 'point': {'lon': -82.330521, 'lat': 32.588146}}, {'xid': 'W555053758', 'name': 'Walmart Supercenter', 'rate': 1, 'osm': 'way/555053758', 'kinds': 'shops,supermarkets,tourist_facilities', 'point': {'lon': -82.812294, 'lat': 32.951965}}, {'xid': 'W581380547', 'name': 'Harveys Supermarket', 'rate': 1, 'osm': 'way/581380547', 'kinds': 'shops,supermarkets,tourist_facilities', 'point': {'lon': -82.11039, 'lat': 32.078239}}]