[{"xid":"W169794578","name":"SuperISSSTE","rate":1,"osm":"way/169794578","kinds":"shops,supermarkets,tourist_facilities","point":{"lon":-115.452812,"lat":32.64465}},{"xid":"W169846581","name":"Ley","rate":1,"osm":"way/169846581","kinds":"shops,supermarkets,tourist_facilities","point":{"lon":-115.455276,"lat":32.63776}},{"xid":"W193808800","name":"Soriana","rate":1,"osm":"way/193808800","kinds":"shops,supermarkets,tourist_facilities","point":{"lon":-115.475616,"lat":32.593353}},{"xid":"W266176499","name":"Sam's Club","rate":1,"osm":"way/266176499","kinds":"shops,supermarkets,tourist_facilities","point":{"lon":-115.456688,"lat":32.623383}},{"xid":"W596627716","name":"Cardenas","rate":1,"osm":"way/596627716","kinds":"shops,supermarkets,tourist_facilities","point":{"lon":-115.571785,"lat":32.808094}},{"xid":"N1814483907","name":"Superior","rate":1,"osm":"node/1814483907","kinds":"shops,supermarkets,tourist_facilities","point":{"lon":-115.460243,"lat":32.646187}},{"xid":"N1826921081","name":"Fruterua y Carnicería Yenny","rate":1,"osm":"node/1826921081","kinds":"shops,supermarkets,tourist_facilities","point":{"lon":-115.465157,"lat":32.646778}},{"xid":"N1834615110","name":"Smart & Final","rate":1,"osm":"node/1834615110","kinds":"shops,supermarkets,tourist_facilities","point":{"lon":-115.470734,"lat":32.649178}},{"xid":"N1868061477","name":"Calimax","rate":1,"osm":"node/1868061477","kinds":"shops,supermarkets,tourist_facilities","point":{"lon":-115.417473,"lat":32.656712}},{"xid":"N2067125859","name":"Super Chivas","rate":1,"osm":"node/2067125859","kinds":"shops,supermarkets,tourist_facilities","point":{"lon":-115.448395,"lat":32.588505}},{"xid":"N2071813697","name":"Tienda Ley","rate":1,"osm":"node/2071813697","kinds":"shops,supermarkets,tourist_facilities","point":{"lon":-115.505058,"lat":32.644672}},{"xid":"N2573846847","name":"Abarrotes LG","rate":1,"osm":"node/2573846847","kinds":"shops,supermarkets,tourist_facilities","point":{"lon":-115.507683,"lat":32.634438}},{"xid":"N3352951447","name":"Ley","rate":1,"osm":"node/3352951447","kinds":"shops,supermarkets,tourist_facilities","point":{"lon":-115.476685,"lat":32.603649}},{"xid":"N3860744348","name":"OXXO","rate":1,"osm":"node/3860744348","kinds":"shops,supermarkets,tourist_facilities","point":{"lon":-115.428062,"lat":32.604012}},{"xid":"N3860744345","name":"OXXO","rate":1,"osm":"node/3860744345","kinds":"shops,supermarkets,tourist_facilities","point":{"lon":-115.422386,"lat":32.624527}},{"xid":"N3860746301","name":"Calimax","rate":1,"osm":"node/3860746301","kinds":"shops,supermarkets,tourist_facilities","point":{"lon":-115.421082,"lat":32.624435}},{"xid":"N4238768990","name":"Bodega Aurrera","rate":1,"osm":"node/4238768990","kinds":"shops,supermarkets,tourist_facilities","point":{"lon":-115.397186,"lat":32.615284}},{"xid":"N4261519893","name":"Absa ","rate":1,"osm":"node/4261519893","kinds":"shops,supermarkets,tourist_facilities","point":{"lon":-115.469788,"lat":32.649521}},{"xid":"N4261536590","name":"Food 4 Less","rate":1,"osm":"node/4261536590","kinds":"shops,supermarkets,tourist_facilities","point":{"lon":-115.501518,"lat":32.68042}},{"xid":"N4638816058","name":"Sol Market","rate":1,"osm":"node/4638816058","kinds":"shops,supermarkets,tourist_facilities","point":{"lon":-115.55291,"lat":32.779518}},{"xid":"N5326592209","name":"Mercado Ley","rate":1,"osm":"node/5326592209","kinds":"shops,supermarkets,tourist_facilities","point":{"lon":-115.493256,"lat":32.622738}},{"xid":"N5383649327","name":"Ley Periférico","rate":1,"osm":"node/5383649327","kinds":"shops,supermarkets,tourist_facilities","point":{"lon":-115.41507,"lat":32.638805}},{"xid":"N5682904280","name":"Food 4 Less","rate":1,"osm":"node/5682904280","kinds":"shops,supermarkets,tourist_facilities","point":{"lon":-115.572594,"lat":32.815712}},{"xid":"N5718756702","name":"El Sol Market","rate":1,"osm":"node/5718756702","kinds":"shops,supermarkets,tourist_facilities","point":{"lon":-115.582222,"lat":32.795311}},{"xid":"N5771643878","name":"Soriana","rate":1,"osm":"node/5771643878","kinds":"shops,supermarkets,tourist_facilities","point":{"lon":-115.435791,"lat":32.607632}},{"xid":"N5882648927","name":"Walmart Supercenter","rate":1,"osm":"node/5882648927","kinds":"shops,supermarkets,tourist_facilities","point":{"lon":-115.385033,"lat":32.63369}},{"xid":"N6247327635","name":"Los Limones","rate":1,"osm":"node/6247327635","kinds":"shops,supermarkets,tourist_facilities","point":{"lon":-115.067139,"lat":32.341564}},{"xid":"W169503651","name":"Office Depot","rate":1,"osm":"way/169503651","kinds":"shops,supermarkets,tourist_facilities","point":{"lon":-115.450714,"lat":32.639668}},{"xid":"N3860746307","name":"OXXO","rate":1,"osm":"node/3860746307","kinds":"shops,supermarkets,tourist_facilities","point":{"lon":-115.519653,"lat":32.611759}},{"xid":"N3860746304","name":"OXXO","rate":1,"osm":"node/3860746304","kinds":"shops,supermarkets,tourist_facilities","point":{"lon":-115.486404,"lat":32.624119}},{"xid":"N3860746306","name":"OXXO","rate":1,"osm":"node/3860746306","kinds":"shops,supermarkets,tourist_facilities","point":{"lon":-115.508537,"lat":32.61734}},{"xid":"N4719778692","name":"OXXO","rate":1,"osm":"node/4719778692","kinds":"shops,supermarkets,tourist_facilities","point":{"lon":-115.485092,"lat":32.623653}},{"xid":"N5315597613","name":"Walmart Supercenter","rate":1,"osm":"node/5315597613","kinds":"shops,supermarkets,tourist_facilities","point":{"lon":-115.54583,"lat":32.962433}},{"xid":"N5326561647","name":"Mercado Tito's","rate":1,"osm":"node/5326561647","kinds":"shops,supermarkets,tourist_facilities","point":{"lon":-115.490334,"lat":32.633698}},{"xid":"W128846269","name":"Vons 1767","rate":1,"osm":"way/128846269","kinds":"shops,supermarkets,tourist_facilities","point":{"lon":-115.550339,"lat":32.979012}},{"xid":"W169503654","name":"Soriana","rate":1,"osm":"way/169503654","kinds":"shops,supermarkets,tourist_facilities","point":{"lon":-115.451332,"lat":32.639641}},{"xid":"W54661243","name":"Ley Periferico","rate":1,"osm":"way/54661243","kinds":"shops,supermarkets,tourist_facilities","point":{"lon":-115.415077,"lat":32.638905}},{"xid":"W131288686","name":"Vons 2406","rate":1,"osm":"way/131288686","kinds":"shops,supermarkets,tourist_facilities","point":{"lon":-115.571747,"lat":32.798889}},{"xid":"W193808806","name":"Bodega Aurrera","rate":1,"osm":"way/193808806","kinds":"shops,supermarkets,tourist_facilities","point":{"lon":-115.478333,"lat":32.593979}},{"xid":"W474228932","name":"Walmart Supercenter","rate":1,"osm":"way/474228932","kinds":"shops,supermarkets,tourist_facilities","point":{"lon":-115.577415,"lat":32.813305}},{"xid":"W597059927","name":"Luckys","rate":1,"osm":"way/597059927","kinds":"shops,supermarkets,tourist_facilities","point":{"lon":-115.550362,"lat":32.770313}},{"xid":"W602675901","name":"Aldi","rate":1,"osm":"way/602675901","kinds":"shops,supermarkets,tourist_facilities","point":{"lon":-115.495621,"lat":32.694962}},{"xid":"N2067125856","name":"Tienda Ley \"Independencia\"","rate":1,"osm":"node/2067125856","kinds":"shops,supermarkets,tourist_facilities","point":{"lon":-115.455345,"lat":32.637806}},{"xid":"N2071813679","name":"Wal Mart","rate":1,"osm":"node/2071813679","kinds":"shops,supermarkets,tourist_facilities","point":{"lon":-115.506622,"lat":32.621296}},{"xid":"N3860745713","name":"OXXO","rate":1,"osm":"node/3860745713","kinds":"shops,supermarkets,tourist_facilities","point":{"lon":-115.491844,"lat":32.624138}},{"xid":"N4719778991","name":"OXXO","rate":1,"osm":"node/4719778991","kinds":"shops,supermarkets,tourist_facilities","point":{"lon":-115.479286,"lat":32.622524}},{"xid":"N4719828389","name":"OXXO","rate":1,"osm":"node/4719828389","kinds":"shops,supermarkets,tourist_facilities","point":{"lon":-115.482658,"lat":32.618301}},{"xid":"N4788724590","name":"Central de Abastos Mexicali","rate":1,"osm":"node/4788724590","kinds":"shops,supermarkets,tourist_facilities","point":{"lon":-115.342903,"lat":32.574394}},{"xid":"N5326536164","name":"Mercado Ferbis","rate":1,"osm":"node/5326536164","kinds":"shops,supermarkets,tourist_facilities","point":{"lon":-115.493156,"lat":32.633587}},{"xid":"N5326561155","name":"Mercado Tito's","rate":1,"osm":"node/5326561155","kinds":"shops,supermarkets,tourist_facilities","point":{"lon":-115.492378,"lat":32.630169}},{"xid":"N5352168437","name":"Smart & Final","rate":1,"osm":"node/5352168437","kinds":"shops,supermarkets,tourist_facilities","point":{"lon":-115.50985,"lat":32.622845}},{"xid":"N5383260908","name":"Calimax","rate":1,"osm":"node/5383260908","kinds":"shops,supermarkets,tourist_facilities","point":{"lon":-115.380531,"lat":32.605759}},{"xid":"N5729282321","name":"Titos San Marcos","rate":1,"osm":"node/5729282321","kinds":"shops,supermarkets,tourist_facilities","point":{"lon":-115.492332,"lat":32.630142}},{"xid":"W596610524","name":"Aldi","rate":1,"osm":"way/596610524","kinds":"shops,supermarkets,tourist_facilities","point":{"lon":-115.571198,"lat":32.814396}},{"xid":"W599061613","name":"Smart and Final y mas","rate":1,"osm":"way/599061613","kinds":"shops,supermarkets,tourist_facilities","point":{"lon":-115.571648,"lat":32.797874}},{"xid":"W605362734","name":"El Sol Market","rate":1,"osm":"way/605362734","kinds":"shops,supermarkets,tourist_facilities","point":{"lon":-115.50029,"lat":32.678665}},{"xid":"W266176498","name":"Walmart","rate":1,"osm":"way/266176498","kinds":"shops,supermarkets,tourist_facilities","point":{"lon":-115.455719,"lat":32.622677}},{"xid":"W597065478","name":"Cardenas","rate":1,"osm":"way/597065478","kinds":"shops,supermarkets,tourist_facilities","point":{"lon":-115.496994,"lat":32.69149}},{"xid":"W54925714","name":"Calimax","rate":1,"osm":"way/54925714","kinds":"shops,supermarkets,tourist_facilities","point":{"lon":-115.4776,"lat":32.605488}},{"xid":"N2071837976","name":"Calimax","rate":1,"osm":"node/2071837976","kinds":"shops,supermarkets,tourist_facilities","point":{"lon":-115.457855,"lat":32.661865}},{"xid":"W469581102","name":"","rate":0,"osm":"way/469581102","kinds":"shops,supermarkets,tourist_facilities","point":{"lon":-115.552963,"lat":32.779045}},{"xid":"N3860746302","name":"","rate":0,"osm":"node/3860746302","kinds":"shops,supermarkets,tourist_facilities","point":{"lon":-115.425591,"lat":32.602081}},{"xid":"N4227715494","name":"","rate":0,"osm":"node/4227715494","kinds":"shops,supermarkets,tourist_facilities","point":{"lon":-115.501717,"lat":32.680397}},{"xid":"W193797858","name":"","rate":0,"osm":"way/193797858","kinds":"shops,supermarkets,tourist_facilities","point":{"lon":-115.478043,"lat":32.621983}},{"xid":"N3860744353","name":"","rate":0,"osm":"node/3860744353","kinds":"shops,supermarkets,tourist_facilities","point":{"lon":-115.448929,"lat":32.622021}},{"xid":"N6312942958","name":"","rate":0,"osm":"node/6312942958","kinds":"shops,supermarkets,tourist_facilities","point":{"lon":-115.473824,"lat":32.620537}}]