[{"xid":"W351982576","name":"Natural Grocers","rate":1,"osm":"way/351982576","kinds":"shops,supermarkets,tourist_facilities","point":{"lon":-111.793839,"lat":34.863419}},{"xid":"N5797702757","name":"Bashas","rate":1,"osm":"node/5797702757","kinds":"shops,supermarkets,tourist_facilities","point":{"lon":-111.864716,"lat":34.567013}},{"xid":"W141002702","name":"Safeway","rate":1,"osm":"way/141002702","kinds":"shops,supermarkets,tourist_facilities","point":{"lon":-111.800461,"lat":34.864925}},{"xid":"W141025161","name":"Bashas","rate":1,"osm":"way/141025161","kinds":"shops,supermarkets,tourist_facilities","point":{"lon":-111.794861,"lat":34.866364}},{"xid":"W351748858","name":"Whole Foods Market","rate":1,"osm":"way/351748858","kinds":"shops,supermarkets,tourist_facilities","point":{"lon":-111.784912,"lat":34.863586}},{"xid":"N761392678","name":"Basha's","rate":1,"osm":"node/761392678","kinds":"shops,supermarkets,tourist_facilities","point":{"lon":-111.321144,"lat":34.242214}},{"xid":"N1615804927","name":"Safeway","rate":1,"osm":"node/1615804927","kinds":"shops,supermarkets,tourist_facilities","point":{"lon":-111.317635,"lat":34.239735}},{"xid":"W352013071","name":"Clark's Market & Pharmacy","rate":1,"osm":"way/352013071","kinds":"shops,supermarkets,tourist_facilities","point":{"lon":-111.764648,"lat":34.779064}},{"xid":"W92482874","name":"Walmart Supercenter","rate":1,"osm":"way/92482874","kinds":"shops,supermarkets,tourist_facilities","point":{"lon":-111.325386,"lat":34.24432}},{"xid":"W147500290","name":"C-Market","rate":1,"osm":"way/147500290","kinds":"shops,supermarkets,tourist_facilities","point":{"lon":-111.761482,"lat":34.870064}}]