[{"xid":"W374630692","name":"Walmart Neighborhood Market","rate":2,"osm":"way/374630692","wikidata":"Q7963529","kinds":"shops,supermarkets,tourist_facilities","point":{"lon":-87.396324,"lat":36.549274}},{"xid":"W456953387","name":"Sam's Club","rate":2,"osm":"way/456953387","wikidata":"Q1972120","kinds":"shops,supermarkets,tourist_facilities","point":{"lon":-87.276215,"lat":36.602959}},{"xid":"W549643286","name":"Priceless IGA","rate":2,"osm":"way/549643286","wikidata":"Q3146662","kinds":"shops,supermarkets,tourist_facilities","point":{"lon":-87.394745,"lat":36.554855}},{"xid":"W249675942","name":"Dollar General","rate":1,"osm":"way/249675942","kinds":"shops,supermarkets,tourist_facilities","point":{"lon":-87.067726,"lat":36.582947}},{"xid":"W304463360","name":"Publix Grocery Store","rate":1,"osm":"way/304463360","kinds":"shops,supermarkets,tourist_facilities","point":{"lon":-87.372559,"lat":36.62521}},{"xid":"W657723474","name":"Walmart Neighborhood Market","rate":1,"osm":"way/657723474","kinds":"shops,supermarkets,tourist_facilities","point":{"lon":-87.515198,"lat":36.859032}},{"xid":"N495865075","name":"H.G. Hill's Supermarket","rate":1,"osm":"node/495865075","kinds":"shops,supermarkets,tourist_facilities","point":{"lon":-87.030975,"lat":36.397388}},{"xid":"N1314685036","name":"Dollar General Market","rate":1,"osm":"node/1314685036","kinds":"shops,supermarkets,tourist_facilities","point":{"lon":-87.028351,"lat":36.396873}},{"xid":"N3210022565","name":"Walmart Supercenter","rate":1,"osm":"node/3210022565","kinds":"shops,supermarkets,tourist_facilities","point":{"lon":-87.380737,"lat":36.060219}},{"xid":"W367474993","name":"La Mexicana Mercado Y Taqueria","rate":1,"osm":"way/367474993","kinds":"shops,supermarkets,tourist_facilities","point":{"lon":-87.402145,"lat":36.562832}},{"xid":"W309179718","name":"Walmart Supercenter","rate":1,"osm":"way/309179718","kinds":"shops,supermarkets,tourist_facilities","point":{"lon":-87.291229,"lat":36.59462}},{"xid":"N5315601807","name":"Walmart Supercenter","rate":1,"osm":"node/5315601807","kinds":"shops,supermarkets,tourist_facilities","point":{"lon":-87.032524,"lat":36.247875}},{"xid":"W193796985","name":"Walmart Supercenter","rate":1,"osm":"way/193796985","kinds":"shops,supermarkets,tourist_facilities","point":{"lon":-87.832642,"lat":36.084332}},{"xid":"W359855669","name":"Walmart Supercenter","rate":1,"osm":"way/359855669","kinds":"shops,supermarkets,tourist_facilities","point":{"lon":-87.269066,"lat":36.509476}},{"xid":"W589364821","name":"Piggly Wiggly","rate":1,"osm":"way/589364821","kinds":"shops,supermarkets,tourist_facilities","point":{"lon":-87.891327,"lat":36.480347}},{"xid":"W657735532","name":"Walmart Supercenter","rate":1,"osm":"way/657735532","kinds":"shops,supermarkets,tourist_facilities","point":{"lon":-87.469269,"lat":36.829872}},{"xid":"W658040747","name":"Walmart Neighborhood Market","rate":1,"osm":"way/658040747","kinds":"shops,supermarkets,tourist_facilities","point":{"lon":-87.33535,"lat":36.582397}},{"xid":"W658042452","name":"Walmart Neighborhood Market","rate":1,"osm":"way/658042452","kinds":"shops,supermarkets,tourist_facilities","point":{"lon":-87.422646,"lat":36.634605}},{"xid":"W658098971","name":"Walmart Supercenter","rate":1,"osm":"way/658098971","kinds":"shops,supermarkets,tourist_facilities","point":{"lon":-87.44014,"lat":36.668106}},{"xid":"N5541299506","name":"Dong Yang Oriental Market","rate":1,"osm":"node/5541299506","kinds":"shops,supermarkets,tourist_facilities","point":{"lon":-87.421349,"lat":36.598148}},{"xid":"N5309370218","name":"Mercado Chapalita","rate":1,"osm":"node/5309370218","kinds":"fast_food,shops,foods,supermarkets,tourist_facilities","point":{"lon":-87.395805,"lat":36.555351}},{"xid":"W281967762","name":"Kroger","rate":1,"osm":"way/281967762","kinds":"shops,supermarkets,tourist_facilities","point":{"lon":-87.398293,"lat":36.553108}},{"xid":"W307851538","name":"Aldi","rate":1,"osm":"way/307851538","kinds":"shops,supermarkets,tourist_facilities","point":{"lon":-87.411087,"lat":36.576614}},{"xid":"W307851469","name":"Walmart Supercenter","rate":1,"osm":"way/307851469","kinds":"shops,supermarkets,tourist_facilities","point":{"lon":-87.412926,"lat":36.580299}},{"xid":"W367474998","name":"Mimi Asian Food Market","rate":1,"osm":"way/367474998","kinds":"shops,supermarkets,tourist_facilities","point":{"lon":-87.402275,"lat":36.563084}},{"xid":"W645828106","name":"Chappell's Cee Bee","rate":1,"osm":"way/645828106","kinds":"shops,supermarkets,tourist_facilities","point":{"lon":-87.227829,"lat":36.109104}},{"xid":"W107555721","name":"Publix","rate":1,"osm":"way/107555721","kinds":"shops,supermarkets,tourist_facilities","point":{"lon":-87.313232,"lat":36.515663}}]