[{'xid': 'W226897829', 'name': 'Rainbow Grocery', 'rate': 1, 'osm': 'way/226897829', 'kinds': 'shops,supermarkets,tourist_facilities', 'point': {'lon': -106.638634, 'lat': 37.670006}}, {'xid': 'W617921867', 'name': 'Hometown Food Markets', 'rate': 1, 'osm': 'way/617921867', 'kinds': 'shops,supermarkets,tourist_facilities', 'point': {'lon': -106.008354, 'lat': 37.076363}}, {'xid': 'N3513805497', 'name': 'Safeway', 'rate': 1, 'osm': 'node/3513805497', 'kinds': 'shops,supermarkets,tourist_facilities', 'point': {'lon': -106.14225, 'lat': 37.578217}}, {'xid': 'N4416544576', 'name': 'Organic Peddler', 'rate': 1, 'osm': 'node/4416544576', 'kinds': 'shops,supermarkets,tourist_facilities', 'point': {'lon': -106.36174, 'lat': 37.679703}}, {'xid': 'W555838541', 'name': 'Kentucky Bell Market', 'rate': 1, 'osm': 'way/555838541', 'kinds': 'shops,supermarkets,tourist_facilities', 'point': {'lon': -106.927216, 'lat': 37.851757}}, {'xid': 'W450231264', 'name': '', 'rate': 0, 'osm': 'way/450231264', 'kinds': 'shops,supermarkets,tourist_facilities', 'point': {'lon': -106.161537, 'lat': 37.579697}}]