[{'xid': 'N2341494240', 'name': "Larry's Hometown Market", 'rate': 1, 'osm': 'node/2341494240', 'kinds': 'shops,supermarkets,tourist_facilities', 'point': {'lon': -98.029915, 'lat': 37.152458}}, {'xid': 'W484462544', 'name': 'Dillons', 'rate': 1, 'osm': 'way/484462544', 'kinds': 'shops,supermarkets,tourist_facilities', 'point': {'lon': -98.727592, 'lat': 37.646545}}, {'xid': 'W512363867', 'name': 'Walmart Supercenter', 'rate': 1, 'osm': 'way/512363867', 'kinds': 'shops,supermarkets,tourist_facilities', 'point': {'lon': -98.713608, 'lat': 37.643917}}, {'xid': 'N4629397184', 'name': "Paul's Grocery", 'rate': 1, 'osm': 'node/4629397184', 'kinds': 'shops,supermarkets,tourist_facilities', 'point': {'lon': -98.600563, 'lat': 37.959007}}, {'xid': 'N4630256208', 'name': "White's Food Liner", 'rate': 1, 'osm': 'node/4630256208', 'kinds': 'shops,supermarkets,tourist_facilities', 'point': {'lon': -98.100006, 'lat': 37.647118}}]