[{'xid': 'W417225039', 'name': 'High Country Health Food Store & Cafe', 'rate': 1, 'osm': 'way/417225039', 'kinds': 'shops,supermarkets,tourist_facilities', 'point': {'lon': -119.974449, 'lat': 37.493126}}, {'xid': 'W419118117', 'name': "Raley's", 'rate': 1, 'osm': 'way/419118117', 'kinds': 'shops,supermarkets,tourist_facilities', 'point': {'lon': -119.656776, 'lat': 37.333252}}, {'xid': 'N6597719928', 'name': 'Grocery outlet', 'rate': 1, 'osm': 'node/6597719928', 'kinds': 'shops,supermarkets,tourist_facilities', 'point': {'lon': -119.656654, 'lat': 37.334141}}, {'xid': 'W132687487', 'name': 'Vons 2409', 'rate': 1, 'osm': 'way/132687487', 'kinds': 'shops,supermarkets,tourist_facilities', 'point': {'lon': -119.659027, 'lat': 37.330437}}, {'xid': 'W178548438', 'name': 'Pioneer Market', 'rate': 1, 'osm': 'way/178548438', 'kinds': 'shops,supermarkets,tourist_facilities', 'point': {'lon': -119.971786, 'lat': 37.488403}}, {'xid': 'N4134865320', 'name': 'Half Dome Village Gift & Grocery', 'rate': 1, 'osm': 'node/4134865320', 'kinds': 'shops,supermarkets,tourist_facilities', 'point': {'lon': -119.571159, 'lat': 37.737625}}, {'xid': 'W292517469', 'name': 'MarVal', 'rate': 1, 'osm': 'way/292517469', 'kinds': 'shops,supermarkets,tourist_facilities', 'point': {'lon': -119.517105, 'lat': 37.037025}}, {'xid': 'W42153865', 'name': 'June Lake General Store', 'rate': 1, 'osm': 'way/42153865', 'kinds': 'shops,supermarkets,tourist_facilities', 'point': {'lon': -119.07592, 'lat': 37.778294}}]