[{'xid': 'W157807082', 'name': 'Walmart Supercenter', 'rate': 1, 'osm': 'way/157807082', 'kinds': 'shops,supermarkets,tourist_facilities', 'point': {'lon': -121.551178, 'lat': 37.008579}}, {'xid': 'W184110546', 'name': "Raley's Grocery Store", 'rate': 1, 'osm': 'way/184110546', 'kinds': 'shops,supermarkets,tourist_facilities', 'point': {'lon': -121.238358, 'lat': 37.825878}}, {'xid': 'W227074023', 'name': 'Grocery Outlet', 'rate': 1, 'osm': 'way/227074023', 'kinds': 'shops,supermarkets,tourist_facilities', 'point': {'lon': -121.858284, 'lat': 37.301388}}, {'xid': 'W230526493', 'name': 'Whole Foods Market', 'rate': 1, 'osm': 'way/230526493', 'kinds': 'shops,supermarkets,tourist_facilities', 'point': {'lon': -121.961273, 'lat': 37.761745}}, {'xid': 'W231418234', 'name': 'Walmart Neighborhood Market', 'rate': 1, 'osm': 'way/231418234', 'kinds': 'shops,supermarkets,tourist_facilities', 'point': {'lon': -121.929207, 'lat': 37.729279}}, {'xid': 'W232371339', 'name': 'Safeway 2712', 'rate': 1, 'osm': 'way/232371339', 'kinds': 'shops,supermarkets,tourist_facilities', 'point': {'lon': -121.922081, 'lat': 37.774918}}, {'xid': 'W237330221', 'name': 'Smart & Final', 'rate': 1, 'osm': 'way/237330221', 'kinds': 'shops,supermarkets,tourist_facilities', 'point': {'lon': -121.906456, 'lat': 37.699474}}, {'xid': 'W239710417', 'name': 'Safeway', 'rate': 1, 'osm': 'way/239710417', 'kinds': 'shops,supermarkets,tourist_facilities', 'point': {'lon': -121.857834, 'lat': 37.388172}}, {'xid': 'W239712855', 'name': 'Safeway 0695', 'rate': 1, 'osm': 'way/239712855', 'kinds': 'shops,supermarkets,tourist_facilities', 'point': {'lon': -121.861473, 'lat': 37.219505}}, {'xid': 'W239717604', 'name': 'Safeway 1483', 'rate': 1, 'osm': 'way/239717604', 'kinds': 'shops,supermarkets,tourist_facilities', 'point': {'lon': -121.911011, 'lat': 37.293297}}, {'xid': 'W239730091', 'name': 'Safeway 1526', 'rate': 1, 'osm': 'way/239730091', 'kinds': 'shops,supermarkets,tourist_facilities', 'point': {'lon': -121.949409, 'lat': 37.324337}}, {'xid': 'W252243424', 'name': 'Safeway', 'rate': 1, 'osm': 'way/252243424', 'kinds': 'shops,supermarkets,tourist_facilities', 'point': {'lon': -121.636421, 'lat': 37.128784}}, {'xid': 'W252698172', 'name': 'Safeway', 'rate': 1, 'osm': 'way/252698172', 'kinds': 'shops,supermarkets,tourist_facilities', 'point': {'lon': -121.218765, 'lat': 37.786667}}, {'xid': 'W253143749', 'name': 'Safeway 1931', 'rate': 1, 'osm': 'way/253143749', 'kinds': 'shops,supermarkets,tourist_facilities', 'point': {'lon': -121.92746, 'lat': 37.48962}}, {'xid': 'W253586079', 'name': 'Safeway', 'rate': 1, 'osm': 'way/253586079', 'kinds': 'shops,supermarkets,tourist_facilities', 'point': {'lon': -121.927315, 'lat': 37.7062}}, {'xid': 'W253707933', 'name': 'Safeway 1917', 'rate': 1, 'osm': 'way/253707933', 'kinds': 'shops,supermarkets,tourist_facilities', 'point': {'lon': -121.621414, 'lat': 37.890778}}, {'xid': 'W254577755', 'name': 'Walmart Neighborhood Market', 'rate': 1, 'osm': 'way/254577755', 'kinds': 'shops,supermarkets,tourist_facilities', 'point': {'lon': -121.985458, 'lat': 37.39006}}, {'xid': 'W258200674', 'name': 'Grocery Outlet Bargain Mart', 'rate': 1, 'osm': 'way/258200674', 'kinds': 'shops,supermarkets,tourist_facilities', 'point': {'lon': -121.993378, 'lat': 37.336632}}, {'xid': 'W258213390', 'name': 'kyo-po', 'rate': 1, 'osm': 'way/258213390', 'kinds': 'shops,supermarkets,tourist_facilities', 'point': {'lon': -121.994278, 'lat': 37.33918}}, {'xid': 'W287586479', 'name': 'Super Mercado', 'rate': 1, 'osm': 'way/287586479', 'kinds': 'shops,supermarkets,tourist_facilities', 'point': {'lon': -121.252708, 'lat': 37.95525}}, {'xid': 'W319497391', 'name': 'Grocery Outlet', 'rate': 1, 'osm': 'way/319497391', 'kinds': 'shops,supermarkets,tourist_facilities', 'point': {'lon': -121.194107, 'lat': 37.798901}}, {'xid': 'W345802569', 'name': 'Cardenas', 'rate': 1, 'osm': 'way/345802569', 'kinds': 'shops,supermarkets,tourist_facilities', 'point': {'lon': -121.88942, 'lat': 37.343334}}, {'xid': 'W347759483', 'name': 'Apatzingan', 'rate': 1, 'osm': 'way/347759483', 'kinds': 'shops,supermarkets,tourist_facilities', 'point': {'lon': -121.891312, 'lat': 37.359409}}, {'xid': 'W443069559', 'name': 'Sprouts Farmers Market', 'rate': 1, 'osm': 'way/443069559', 'kinds': 'shops,supermarkets,tourist_facilities', 'point': {'lon': -121.898201, 'lat': 37.381428}}, {'xid': 'W497044638', 'name': 'Lee’s Supermarket', 'rate': 1, 'osm': 'way/497044638', 'kinds': 'shops,supermarkets,tourist_facilities', 'point': {'lon': -121.839081, 'lat': 37.297718}}, {'xid': 'W527139280', 'name': 'Quality Produce', 'rate': 1, 'osm': 'way/527139280', 'kinds': 'shops,supermarkets,tourist_facilities', 'point': {'lon': -121.860878, 'lat': 37.357536}}, {'xid': 'W530667355', 'name': 'Safeway', 'rate': 1, 'osm': 'way/530667355', 'kinds': 'shops,supermarkets,tourist_facilities', 'point': {'lon': -121.802849, 'lat': 37.246311}}, {'xid': 'W546875686', 'name': 'Walmart Supercenter', 'rate': 1, 'osm': 'way/546875686', 'kinds': 'shops,supermarkets,tourist_facilities', 'point': {'lon': -121.142746, 'lat': 37.462257}}, {'xid': 'W674856480', 'name': 'Foodmaxx', 'rate': 1, 'osm': 'way/674856480', 'kinds': 'shops,supermarkets,tourist_facilities', 'point': {'lon': -121.697067, 'lat': 37.926872}}, {'xid': 'W693961140', 'name': 'Walmart Supercenter', 'rate': 1, 'osm': 'way/693961140', 'kinds': 'shops,supermarkets,tourist_facilities', 'point': {'lon': -121.471733, 'lat': 37.751675}}, {'xid': 'N332112939', 'name': 'Nob Hill', 'rate': 1, 'osm': 'node/332112939', 'kinds': 'shops,supermarkets,tourist_facilities', 'point': {'lon': -121.585075, 'lat': 37.0144}}, {'xid': 'N357522348', 'name': "Trader Joe's", 'rate': 1, 'osm': 'node/357522348', 'kinds': 'shops,supermarkets,tourist_facilities', 'point': {'lon': -121.932579, 'lat': 37.288368}}, {'xid': 'N357524353', 'name': 'Whole Foods Market', 'rate': 1, 'osm': 'node/357524353', 'kinds': 'shops,supermarkets,tourist_facilities', 'point': {'lon': -121.93045, 'lat': 37.292984}}, {'xid': 'N373374203', 'name': 'Trader Joe’s San Jose Coleman Avenue', 'rate': 1, 'osm': 'node/373374203', 'kinds': 'shops,supermarkets,tourist_facilities', 'point': {'lon': -121.909508, 'lat': 37.341019}}, {'xid': 'N429187144', 'name': "Trader Joe's", 'rate': 1, 'osm': 'node/429187144', 'kinds': 'shops,supermarkets,tourist_facilities', 'point': {'lon': -121.994202, 'lat': 37.293064}}, {'xid': 'N442197494', 'name': 'Summit Store', 'rate': 1, 'osm': 'node/442197494', 'kinds': 'shops,supermarkets,tourist_facilities', 'point': {'lon': -121.928749, 'lat': 37.120449}}, {'xid': 'N445291449', 'name': 'Lion Market', 'rate': 1, 'osm': 'node/445291449', 'kinds': 'shops,supermarkets,tourist_facilities', 'point': {'lon': -121.853851, 'lat': 37.331528}}, {'xid': 'N461671351', 'name': "Lunardi's", 'rate': 1, 'osm': 'node/461671351', 'kinds': 'shops,supermarkets,tourist_facilities', 'point': {'lon': -121.897331, 'lat': 37.256546}}, {'xid': 'N487639344', 'name': 'New India Bazaar', 'rate': 1, 'osm': 'node/487639344', 'kinds': 'shops,supermarkets,tourist_facilities', 'point': {'lon': -121.962997, 'lat': 37.35289}}, {'xid': 'N611542090', 'name': 'Smart and Final', 'rate': 1, 'osm': 'node/611542090', 'kinds': 'shops,supermarkets,tourist_facilities', 'point': {'lon': -121.961105, 'lat': 37.353031}}, {'xid': 'N622352576', 'name': 'Big Lots', 'rate': 1, 'osm': 'node/622352576', 'kinds': 'shops,supermarkets,tourist_facilities', 'point': {'lon': -121.998657, 'lat': 37.35363}}, {'xid': 'N984077415', 'name': 'Lucky', 'rate': 1, 'osm': 'node/984077415', 'kinds': 'shops,supermarkets,tourist_facilities', 'point': {'lon': -121.997673, 'lat': 37.53474}}, {'xid': 'N1038703046', 'name': 'RiteAid', 'rate': 1, 'osm': 'node/1038703046', 'kinds': 'shops,supermarkets,tourist_facilities', 'point': {'lon': -121.802795, 'lat': 37.236038}}, {'xid': 'N1072946644', 'name': 'COSTCO', 'rate': 1, 'osm': 'node/1072946644', 'kinds': 'shops,supermarkets,tourist_facilities', 'point': {'lon': -121.475021, 'lat': 37.750641}}, {'xid': 'N1108467950', 'name': "Trader Joe's", 'rate': 1, 'osm': 'node/1108467950', 'kinds': 'shops,supermarkets,tourist_facilities', 'point': {'lon': -121.87912, 'lat': 37.251625}}, {'xid': 'N1155861474', 'name': 'Whole Foods Market', 'rate': 1, 'osm': 'node/1155861474', 'kinds': 'shops,supermarkets,tourist_facilities', 'point': {'lon': -121.876732, 'lat': 37.249352}}, {'xid': 'N1161981912', 'name': 'Food Maxx', 'rate': 1, 'osm': 'node/1161981912', 'kinds': 'shops,supermarkets,tourist_facilities', 'point': {'lon': -121.798279, 'lat': 37.255299}}, {'xid': 'N1169483512', 'name': 'Walgreens', 'rate': 1, 'osm': 'node/1169483512', 'kinds': 'shops,supermarkets,tourist_facilities', 'point': {'lon': -121.981331, 'lat': 37.230301}}, {'xid': 'N1199539316', 'name': 'Super Save Market', 'rate': 1, 'osm': 'node/1199539316', 'kinds': 'shops,supermarkets,tourist_facilities', 'point': {'lon': -121.575073, 'lat': 37.014259}}, {'xid': 'N1234939402', 'name': 'Lucky', 'rate': 1, 'osm': 'node/1234939402', 'kinds': 'shops,supermarkets,tourist_facilities', 'point': {'lon': -121.774452, 'lat': 37.232754}}, {'xid': 'N1280967736', 'name': 'Mi Pueblo', 'rate': 1, 'osm': 'node/1280967736', 'kinds': 'shops,supermarkets,tourist_facilities', 'point': {'lon': -121.843185, 'lat': 37.341354}}, {'xid': 'N1406268248', 'name': 'Marina Market', 'rate': 1, 'osm': 'node/1406268248', 'kinds': 'shops,supermarkets,tourist_facilities', 'point': {'lon': -121.832748, 'lat': 37.278805}}, {'xid': 'N1419609101', 'name': 'SaveMart', 'rate': 1, 'osm': 'node/1419609101', 'kinds': 'shops,supermarkets,tourist_facilities', 'point': {'lon': -121.142365, 'lat': 37.465302}}, {'xid': 'N1425314672', 'name': 'Nob Hill Foods', 'rate': 1, 'osm': 'node/1425314672', 'kinds': 'shops,supermarkets,tourist_facilities', 'point': {'lon': -121.951546, 'lat': 37.762764}}, {'xid': 'N1492592042', 'name': 'CSV', 'rate': 1, 'osm': 'node/1492592042', 'kinds': 'shops,supermarkets,tourist_facilities', 'point': {'lon': -121.959602, 'lat': 37.949421}}, {'xid': 'N1680552195', 'name': "Lunardi's", 'rate': 1, 'osm': 'node/1680552195', 'kinds': 'shops,supermarkets,tourist_facilities', 'point': {'lon': -121.962601, 'lat': 37.234489}}, {'xid': 'N1691658594', 'name': 'Foodmaxx', 'rate': 1, 'osm': 'node/1691658594', 'kinds': 'shops,supermarkets,tourist_facilities', 'point': {'lon': -121.991631, 'lat': 37.519627}}, {'xid': 'N1700616945', 'name': 'Ranch 99 Grocery', 'rate': 1, 'osm': 'node/1700616945', 'kinds': 'shops,supermarkets,tourist_facilities', 'point': {'lon': -121.916901, 'lat': 37.422749}}, {'xid': 'N1816505667', 'name': "Arteaga's", 'rate': 1, 'osm': 'node/1816505667', 'kinds': 'shops,supermarkets,tourist_facilities', 'point': {'lon': -121.558281, 'lat': 37.000393}}, {'xid': 'N1894046564', 'name': "Raley's", 'rate': 1, 'osm': 'node/1894046564', 'kinds': 'shops,supermarkets,tourist_facilities', 'point': {'lon': -121.010811, 'lat': 37.688404}}, {'xid': 'N1920361993', 'name': 'FoodMaxx', 'rate': 1, 'osm': 'node/1920361993', 'kinds': 'shops,supermarkets,tourist_facilities', 'point': {'lon': -121.987297, 'lat': 37.964066}}, {'xid': 'N1925610616', 'name': 'Grocery Outlet', 'rate': 1, 'osm': 'node/1925610616', 'kinds': 'shops,supermarkets,tourist_facilities', 'point': {'lon': -121.907288, 'lat': 37.270786}}, {'xid': 'N1925619588', 'name': "Zanotto's", 'rate': 1, 'osm': 'node/1925619588', 'kinds': 'shops,supermarkets,tourist_facilities', 'point': {'lon': -121.89238, 'lat': 37.275326}}, {'xid': 'N1931723146', 'name': 'Smart & Final', 'rate': 1, 'osm': 'node/1931723146', 'kinds': 'shops,supermarkets,tourist_facilities', 'point': {'lon': -121.916306, 'lat': 37.26482}}, {'xid': 'N1931736081', 'name': 'International Food Bazaar', 'rate': 1, 'osm': 'node/1931736081', 'kinds': 'shops,supermarkets,tourist_facilities', 'point': {'lon': -121.932999, 'lat': 37.27211}}, {'xid': 'N1963557201', 'name': 'Nijiya Market', 'rate': 1, 'osm': 'node/1963557201', 'kinds': 'shops,supermarkets,tourist_facilities', 'point': {'lon': -121.893509, 'lat': 37.349098}}, {'xid': 'N2001881578', 'name': 'Sprouts Farmers Market', 'rate': 1, 'osm': 'node/2001881578', 'kinds': 'shops,supermarkets,tourist_facilities', 'point': {'lon': -121.986885, 'lat': 37.548992}}, {'xid': 'N2068009989', 'name': 'Lucky', 'rate': 1, 'osm': 'node/2068009989', 'kinds': 'shops,supermarkets,tourist_facilities', 'point': {'lon': -121.88575, 'lat': 37.229073}}, {'xid': 'N2104779661', 'name': 'Nob Hill', 'rate': 1, 'osm': 'node/2104779661', 'kinds': 'shops,supermarkets,tourist_facilities', 'point': {'lon': -121.784966, 'lat': 37.677277}}, {'xid': 'N2120292072', 'name': 'Lion', 'rate': 1, 'osm': 'node/2120292072', 'kinds': 'shops,supermarkets,tourist_facilities', 'point': {'lon': -121.974586, 'lat': 37.319057}}, {'xid': 'N2142094596', 'name': 'K-mart', 'rate': 1, 'osm': 'node/2142094596', 'kinds': 'shops,supermarkets,tourist_facilities', 'point': {'lon': -121.21946, 'lat': 37.820351}}, {'xid': 'N2195212787', 'name': 'Save Mart', 'rate': 1, 'osm': 'node/2195212787', 'kinds': 'shops,supermarkets,tourist_facilities', 'point': {'lon': -121.973907, 'lat': 37.351151}}, {'xid': 'N2235254641', 'name': '99 Ranch Market', 'rate': 1, 'osm': 'node/2235254641', 'kinds': 'shops,supermarkets,tourist_facilities', 'point': {'lon': -121.884399, 'lat': 37.38633}}, {'xid': 'N2388067817', 'name': 'FoodMax', 'rate': 1, 'osm': 'node/2388067817', 'kinds': 'shops,supermarkets,tourist_facilities', 'point': {'lon': -121.916397, 'lat': 37.317566}}, {'xid': 'N2459956563', 'name': 'Grocery Outlet', 'rate': 1, 'osm': 'node/2459956563', 'kinds': 'shops,supermarkets,tourist_facilities', 'point': {'lon': -121.982971, 'lat': 37.530064}}, {'xid': 'N2480678818', 'name': 'Lucky', 'rate': 1, 'osm': 'node/2480678818', 'kinds': 'shops,supermarkets,tourist_facilities', 'point': {'lon': -121.952011, 'lat': 37.555908}}, {'xid': 'N2484033132', 'name': "Raley's", 'rate': 1, 'osm': 'node/2484033132', 'kinds': 'shops,supermarkets,tourist_facilities', 'point': {'lon': -121.878784, 'lat': 37.651772}}, {'xid': 'N2494393481', 'name': 'Jiffy Market', 'rate': 1, 'osm': 'node/2494393481', 'kinds': 'shops,supermarkets,tourist_facilities', 'point': {'lon': -121.960953, 'lat': 37.240929}}, {'xid': 'N2572195811', 'name': 'Lucky', 'rate': 1, 'osm': 'node/2572195811', 'kinds': 'shops,supermarkets,tourist_facilities', 'point': {'lon': -121.857315, 'lat': 37.24926}}, {'xid': 'N2626604199', 'name': '99 Ranch Market', 'rate': 1, 'osm': 'node/2626604199', 'kinds': 'shops,supermarkets,tourist_facilities', 'point': {'lon': -121.87326, 'lat': 37.699585}}, {'xid': 'N2655263941', 'name': 'Mitsuwa', 'rate': 1, 'osm': 'node/2655263941', 'kinds': 'shops,supermarkets,tourist_facilities', 'point': {'lon': -121.977814, 'lat': 37.314915}}, {'xid': 'N2711826834', 'name': 'New Cambodian Market Asian Grocery', 'rate': 1, 'osm': 'node/2711826834', 'kinds': 'shops,supermarkets,tourist_facilities', 'point': {'lon': -121.322891, 'lat': 37.989937}}, {'xid': 'N2961958294', 'name': "Arteaga's", 'rate': 1, 'osm': 'node/2961958294', 'kinds': 'shops,supermarkets,tourist_facilities', 'point': {'lon': -121.283829, 'lat': 37.932556}}, {'xid': 'N2962113719', 'name': 'La Superior', 'rate': 1, 'osm': 'node/2962113719', 'kinds': 'shops,supermarkets,tourist_facilities', 'point': {'lon': -121.267822, 'lat': 37.972343}}, {'xid': 'N3213621500', 'name': 'Lion Supermarket', 'rate': 1, 'osm': 'node/3213621500', 'kinds': 'shops,supermarkets,tourist_facilities', 'point': {'lon': -121.910255, 'lat': 37.456505}}, {'xid': 'N3251650667', 'name': 'Save Mart', 'rate': 1, 'osm': 'node/3251650667', 'kinds': 'shops,supermarkets,tourist_facilities', 'point': {'lon': -121.23893, 'lat': 37.798145}}, {'xid': 'N3272065315', 'name': 'Nob Hill Foods', 'rate': 1, 'osm': 'node/3272065315', 'kinds': 'shops,supermarkets,tourist_facilities', 'point': {'lon': -121.959724, 'lat': 37.240337}}, {'xid': 'N3353528557', 'name': 'Savemart', 'rate': 1, 'osm': 'node/3353528557', 'kinds': 'shops,supermarkets,tourist_facilities', 'point': {'lon': -121.436295, 'lat': 37.751038}}, {'xid': 'N3379039894', 'name': 'Sprouts Farmers Market', 'rate': 1, 'osm': 'node/3379039894', 'kinds': 'shops,supermarkets,tourist_facilities', 'point': {'lon': -121.962273, 'lat': 37.349976}}, {'xid': 'N3582196297', 'name': 'FoodMaxx', 'rate': 1, 'osm': 'node/3582196297', 'kinds': 'shops,supermarkets,tourist_facilities', 'point': {'lon': -121.982666, 'lat': 37.544048}}, {'xid': 'N3621209397', 'name': "Trader Joe's", 'rate': 1, 'osm': 'node/3621209397', 'kinds': 'shops,supermarkets,tourist_facilities', 'point': {'lon': -121.986084, 'lat': 37.543571}}, {'xid': 'N3624624017', 'name': 'Tân Lập Supermarket', 'rate': 1, 'osm': 'node/3624624017', 'kinds': 'shops,supermarkets,tourist_facilities', 'point': {'lon': -121.847427, 'lat': 37.309196}}, {'xid': 'N3640211825', 'name': 'Bharat Bazaar', 'rate': 1, 'osm': 'node/3640211825', 'kinds': 'shops,supermarkets,tourist_facilities', 'point': {'lon': -121.997269, 'lat': 37.367363}}, {'xid': 'N3648986333', 'name': 'Safeway', 'rate': 1, 'osm': 'node/3648986333', 'kinds': 'shops,supermarkets,tourist_facilities', 'point': {'lon': -121.433022, 'lat': 37.745445}}, {'xid': 'N3657473857', 'name': 'Smart & Final', 'rate': 1, 'osm': 'node/3657473857', 'kinds': 'shops,supermarkets,tourist_facilities', 'point': {'lon': -121.980682, 'lat': 37.551311}}, {'xid': 'N3676699449', 'name': 'Namaste Plaza', 'rate': 1, 'osm': 'node/3676699449', 'kinds': 'shops,supermarkets,tourist_facilities', 'point': {'lon': -121.9804, 'lat': 37.550335}}, {'xid': 'N3700417832', 'name': 'Lucky 7', 'rate': 1, 'osm': 'node/3700417832', 'kinds': 'shops,supermarkets,tourist_facilities', 'point': {'lon': -121.827988, 'lat': 37.323032}}, {'xid': 'N3711324855', 'name': 'Maxim Market', 'rate': 1, 'osm': 'node/3711324855', 'kinds': 'shops,supermarkets,tourist_facilities', 'point': {'lon': -121.811142, 'lat': 37.309967}}, {'xid': 'N3748071121', 'name': '84 Market', 'rate': 1, 'osm': 'node/3748071121', 'kinds': 'shops,supermarkets,tourist_facilities', 'point': {'lon': -121.805252, 'lat': 37.690044}}, {'xid': 'N3748097156', 'name': 'Grocery Outlet', 'rate': 1, 'osm': 'node/3748097156', 'kinds': 'shops,supermarkets,tourist_facilities', 'point': {'lon': -121.273575, 'lat': 37.96706}}, {'xid': 'N4131092811', 'name': 'County Market', 'rate': 1, 'osm': 'node/4131092811', 'kinds': 'shops,supermarkets,tourist_facilities', 'point': {'lon': -121.78154, 'lat': 37.994644}}, {'xid': 'N4173374433', 'name': "Denise's Farmers Market", 'rate': 1, 'osm': 'node/4173374433', 'kinds': 'shops,supermarkets,tourist_facilities', 'point': {'lon': -121.317451, 'lat': 37.778667}}, {'xid': 'N4216515153', 'name': 'La Reina Supermarket', 'rate': 1, 'osm': 'node/4216515153', 'kinds': 'shops,supermarkets,tourist_facilities', 'point': {'lon': -121.276405, 'lat': 37.812523}}, {'xid': 'N4289326624', 'name': 'Sprouts Farmers Market', 'rate': 1, 'osm': 'node/4289326624', 'kinds': 'shops,supermarkets,tourist_facilities', 'point': {'lon': -121.878288, 'lat': 37.261971}}, {'xid': 'N4350243735', 'name': 'New India Bazaar', 'rate': 1, 'osm': 'node/4350243735', 'kinds': 'shops,supermarkets,tourist_facilities', 'point': {'lon': -121.881081, 'lat': 37.704914}}, {'xid': 'N4424116803', 'name': 'Arteagas Food Center', 'rate': 1, 'osm': 'node/4424116803', 'kinds': 'shops,supermarkets,tourist_facilities', 'point': {'lon': -121.904083, 'lat': 37.312302}}, {'xid': 'N4514407310', 'name': 'Walgreens', 'rate': 1, 'osm': 'node/4514407310', 'kinds': 'shops,supermarkets,tourist_facilities', 'point': {'lon': -121.140343, 'lat': 37.464863}}, {'xid': 'N4665149990', 'name': 'New Seasons Market', 'rate': 1, 'osm': 'node/4665149990', 'kinds': 'shops,supermarkets,tourist_facilities', 'point': {'lon': -121.780807, 'lat': 37.288086}}, {'xid': 'N4755290398', 'name': "O'Briens", 'rate': 1, 'osm': 'node/4755290398', 'kinds': 'shops,supermarkets,tourist_facilities', 'point': {'lon': -121.048508, 'lat': 37.699509}}, {'xid': 'N4770074021', 'name': 'Slavic Shop', 'rate': 1, 'osm': 'node/4770074021', 'kinds': 'shops,supermarkets,tourist_facilities', 'point': {'lon': -121.977356, 'lat': 37.306057}}, {'xid': 'N4986970193', 'name': '99 Ranch Market', 'rate': 1, 'osm': 'node/4986970193', 'kinds': 'shops,supermarkets,tourist_facilities', 'point': {'lon': -121.933098, 'lat': 37.706318}}, {'xid': 'N5018469890', 'name': 'Lucky Supermarket', 'rate': 1, 'osm': 'node/5018469890', 'kinds': 'shops,supermarkets,tourist_facilities', 'point': {'lon': -121.874794, 'lat': 37.418282}}, {'xid': 'N5125211237', 'name': 'Luckys', 'rate': 1, 'osm': 'node/5125211237', 'kinds': 'shops,supermarkets,tourist_facilities', 'point': {'lon': -121.873596, 'lat': 37.396736}}, {'xid': 'N5125341638', 'name': 'Mi Pueblo', 'rate': 1, 'osm': 'node/5125341638', 'kinds': 'shops,supermarkets,tourist_facilities', 'point': {'lon': -121.842453, 'lat': 37.371605}}, {'xid': 'N5188946023', 'name': 'Lucky', 'rate': 1, 'osm': 'node/5188946023', 'kinds': 'shops,supermarkets,tourist_facilities', 'point': {'lon': -121.994637, 'lat': 37.813061}}, {'xid': 'N5198712797', 'name': 'Sprouts Farmers Market', 'rate': 1, 'osm': 'node/5198712797', 'kinds': 'shops,supermarkets,tourist_facilities', 'point': {'lon': -121.929138, 'lat': 37.707668}}, {'xid': 'N5526610633', 'name': 'Fresco Supermarket', 'rate': 1, 'osm': 'node/5526610633', 'kinds': 'shops,supermarkets,tourist_facilities', 'point': {'lon': -121.809967, 'lat': 37.324047}}, {'xid': 'N6214944407', 'name': 'FoodMaxx', 'rate': 1, 'osm': 'node/6214944407', 'kinds': 'shops,supermarkets,tourist_facilities', 'point': {'lon': -121.451897, 'lat': 37.737385}}, {'xid': 'N6277597582', 'name': 'Armentas Market', 'rate': 1, 'osm': 'node/6277597582', 'kinds': 'shops,supermarkets,tourist_facilities', 'point': {'lon': -121.93338, 'lat': 37.27449}}, {'xid': 'N6320042884', 'name': 'Safeway', 'rate': 1, 'osm': 'node/6320042884', 'kinds': 'shops,supermarkets,tourist_facilities', 'point': {'lon': -121.699142, 'lat': 37.935867}}, {'xid': 'N6429723807', 'name': "Lunardi's Markets", 'rate': 1, 'osm': 'node/6429723807', 'kinds': 'shops,supermarkets,tourist_facilities', 'point': {'lon': -121.998711, 'lat': 37.819645}}, {'xid': 'N6475795962', 'name': 'Spice Corner', 'rate': 1, 'osm': 'node/6475795962', 'kinds': 'shops,supermarkets,tourist_facilities', 'point': {'lon': -121.865639, 'lat': 37.70491}}, {'xid': 'N6625305331', 'name': 'Safeway', 'rate': 1, 'osm': 'node/6625305331', 'kinds': 'shops,supermarkets,tourist_facilities', 'point': {'lon': -121.97908, 'lat': 37.231426}}, {'xid': 'N6681812689', 'name': 'Marina Grocery', 'rate': 1, 'osm': 'node/6681812689', 'kinds': 'shops,supermarkets,tourist_facilities', 'point': {'lon': -121.901321, 'lat': 37.433105}}, {'xid': 'N2108118539', 'name': 'The Olin Avenue Market', 'rate': 1, 'osm': 'node/2108118539', 'kinds': 'shops,supermarkets,tourist_facilities', 'point': {'lon': -121.948326, 'lat': 37.320637}}, {'xid': 'W233698303', 'name': 'Safeway 1211', 'rate': 1, 'osm': 'way/233698303', 'kinds': 'shops,supermarkets,tourist_facilities', 'point': {'lon': -121.917801, 'lat': 37.798058}}, {'xid': 'W238916680', 'name': 'Whole Foods Market', 'rate': 1, 'osm': 'way/238916680', 'kinds': 'shops,supermarkets,tourist_facilities', 'point': {'lon': -121.985222, 'lat': 37.555008}}, {'xid': 'W252699848', 'name': 'Safeway', 'rate': 1, 'osm': 'way/252699848', 'kinds': 'shops,supermarkets,tourist_facilities', 'point': {'lon': -121.984444, 'lat': 37.263714}}, {'xid': 'W253141360', 'name': 'Safeway 1505', 'rate': 1, 'osm': 'way/253141360', 'kinds': 'shops,supermarkets,tourist_facilities', 'point': {'lon': -121.588966, 'lat': 37.014477}}, {'xid': 'W311711134', 'name': 'La Esperanza Meat Market', 'rate': 1, 'osm': 'way/311711134', 'kinds': 'shops,supermarkets,tourist_facilities', 'point': {'lon': -121.000244, 'lat': 37.256813}}, {'xid': 'W311711286', 'name': 'Main Street Market', 'rate': 1, 'osm': 'way/311711286', 'kinds': 'shops,supermarkets,tourist_facilities', 'point': {'lon': -121.016327, 'lat': 37.096352}}, {'xid': 'W252705423', 'name': 'Safeway 1245', 'rate': 1, 'osm': 'way/252705423', 'kinds': 'shops,supermarkets,tourist_facilities', 'point': {'lon': -121.932556, 'lat': 37.242455}}, {'xid': 'W40254595', 'name': 'Walmart', 'rate': 1, 'osm': 'way/40254595', 'kinds': 'shops,supermarkets,tourist_facilities', 'point': {'lon': -121.94323, 'lat': 37.511292}}, {'xid': 'W253761737', 'name': 'Safeway 1192', 'rate': 1, 'osm': 'way/253761737', 'kinds': 'shops,supermarkets,tourist_facilities', 'point': {'lon': -121.990723, 'lat': 37.96616}}, {'xid': 'N309331540', 'name': 'Lucky', 'rate': 1, 'osm': 'node/309331540', 'kinds': 'shops,supermarkets,tourist_facilities', 'point': {'lon': -121.998116, 'lat': 37.353973}}, {'xid': 'N332111900', 'name': 'Mi Pueblo', 'rate': 1, 'osm': 'node/332111900', 'kinds': 'shops,supermarkets,tourist_facilities', 'point': {'lon': -121.583061, 'lat': 37.0144}}, {'xid': 'N431891127', 'name': 'Walgreens', 'rate': 1, 'osm': 'node/431891127', 'kinds': 'shops,supermarkets,tourist_facilities', 'point': {'lon': -121.829926, 'lat': 37.250252}}, {'xid': 'N431891129', 'name': 'Lucky', 'rate': 1, 'osm': 'node/431891129', 'kinds': 'shops,supermarkets,tourist_facilities', 'point': {'lon': -121.829262, 'lat': 37.250328}}, {'xid': 'N563155358', 'name': 'Safeway', 'rate': 1, 'osm': 'node/563155358', 'kinds': 'shops,supermarkets,tourist_facilities', 'point': {'lon': -121.88765, 'lat': 37.334648}}, {'xid': 'N922296124', 'name': 'Lucky', 'rate': 1, 'osm': 'node/922296124', 'kinds': 'shops,supermarkets,tourist_facilities', 'point': {'lon': -121.853813, 'lat': 37.276054}}, {'xid': 'N1920278633', 'name': 'Lucky Supermarket', 'rate': 1, 'osm': 'node/1920278633', 'kinds': 'shops,supermarkets,tourist_facilities', 'point': {'lon': -121.965752, 'lat': 37.953892}}, {'xid': 'N1920282076', 'name': 'KMart', 'rate': 1, 'osm': 'node/1920282076', 'kinds': 'shops,supermarkets,tourist_facilities', 'point': {'lon': -121.968269, 'lat': 37.954853}}, {'xid': 'N2162262736', 'name': 'Nob Hill', 'rate': 1, 'osm': 'node/2162262736', 'kinds': 'shops,supermarkets,tourist_facilities', 'point': {'lon': -121.9786, 'lat': 37.28513}}, {'xid': 'N2418553452', 'name': 'Walgreens', 'rate': 1, 'osm': 'node/2418553452', 'kinds': 'shops,supermarkets,tourist_facilities', 'point': {'lon': -121.944092, 'lat': 37.72485}}, {'xid': 'N2672383561', 'name': 'Safeway', 'rate': 1, 'osm': 'node/2672383561', 'kinds': 'shops,supermarkets,tourist_facilities', 'point': {'lon': -121.927422, 'lat': 37.489616}}, {'xid': 'N2672383566', 'name': 'Marina Food', 'rate': 1, 'osm': 'node/2672383566', 'kinds': 'shops,supermarkets,tourist_facilities', 'point': {'lon': -121.929817, 'lat': 37.493481}}, {'xid': 'N2683062563', 'name': "Trader Joe's", 'rate': 1, 'osm': 'node/2683062563', 'kinds': 'shops,supermarkets,tourist_facilities', 'point': {'lon': -121.749863, 'lat': 37.96072}}, {'xid': 'N3643577900', 'name': 'Đại Thành Supermarket', 'rate': 1, 'osm': 'node/3643577900', 'kinds': 'shops,supermarkets,tourist_facilities', 'point': {'lon': -121.884514, 'lat': 37.330315}}, {'xid': 'N4173374431', 'name': 'Food 4 Less', 'rate': 1, 'osm': 'node/4173374431', 'kinds': 'shops,supermarkets,tourist_facilities', 'point': {'lon': -121.292885, 'lat': 37.912048}}, {'xid': 'N5315598110', 'name': 'Walmart Neighborhood Market', 'rate': 1, 'osm': 'node/5315598110', 'kinds': 'shops,supermarkets,tourist_facilities', 'point': {'lon': -121.871094, 'lat': 37.316212}}, {'xid': 'N5315598943', 'name': 'Walmart Neighborhood Market', 'rate': 1, 'osm': 'node/5315598943', 'kinds': 'shops,supermarkets,tourist_facilities', 'point': {'lon': -121.773064, 'lat': 37.313557}}, {'xid': 'N5315599453', 'name': 'Walmart Supercenter', 'rate': 1, 'osm': 'node/5315599453', 'kinds': 'shops,supermarkets,tourist_facilities', 'point': {'lon': -121.761612, 'lat': 37.963478}}, {'xid': 'W117455287', 'name': 'Walmart Supercenter', 'rate': 1, 'osm': 'way/117455287', 'kinds': 'shops,supermarkets,tourist_facilities', 'point': {'lon': -121.921127, 'lat': 37.431667}}, {'xid': 'W119890356', 'name': 'Walmart', 'rate': 1, 'osm': 'way/119890356', 'kinds': 'shops,supermarkets,tourist_facilities', 'point': {'lon': -121.887329, 'lat': 37.698483}}, {'xid': 'W171000827', 'name': 'Nob Hill Foods', 'rate': 1, 'osm': 'way/171000827', 'kinds': 'shops,supermarkets,tourist_facilities', 'point': {'lon': -121.020599, 'lat': 37.309399}}, {'xid': 'W191038646', 'name': 'Safeway 1769', 'rate': 1, 'osm': 'way/191038646', 'kinds': 'shops,supermarkets,tourist_facilities', 'point': {'lon': -121.337555, 'lat': 37.962318}}, {'xid': 'W252948016', 'name': 'WinCo Foods', 'rate': 1, 'osm': 'way/252948016', 'kinds': 'shops,supermarkets,tourist_facilities', 'point': {'lon': -121.468536, 'lat': 37.758942}}, {'xid': 'W254304587', 'name': 'Safeway 3241', 'rate': 1, 'osm': 'way/254304587', 'kinds': 'shops,supermarkets,tourist_facilities', 'point': {'lon': -121.966537, 'lat': 37.292965}}, {'xid': 'W254305140', 'name': 'Safeway 1293', 'rate': 1, 'osm': 'way/254305140', 'kinds': 'shops,supermarkets,tourist_facilities', 'point': {'lon': -121.95108, 'lat': 37.28006}}, {'xid': 'W262639611', 'name': 'Winco', 'rate': 1, 'osm': 'way/262639611', 'kinds': 'shops,supermarkets,tourist_facilities', 'point': {'lon': -121.729294, 'lat': 37.964764}}, {'xid': 'W347004931', 'name': 'Santo Market', 'rate': 1, 'osm': 'way/347004931', 'kinds': 'shops,supermarkets,tourist_facilities', 'point': {'lon': -121.895317, 'lat': 37.351707}}, {'xid': 'W357150469', 'name': 'La Estrella Market', 'rate': 1, 'osm': 'way/357150469', 'kinds': 'shops,supermarkets,tourist_facilities', 'point': {'lon': -121.868935, 'lat': 37.351845}}, {'xid': 'W24302658', 'name': 'Walmart', 'rate': 1, 'osm': 'way/24302658', 'kinds': 'shops,supermarkets,tourist_facilities', 'point': {'lon': -121.76799, 'lat': 37.699245}}, {'xid': 'W27629337', 'name': 'Walmart Supercenter', 'rate': 1, 'osm': 'way/27629337', 'kinds': 'shops,supermarkets,tourist_facilities', 'point': {'lon': -121.655235, 'lat': 37.149208}}, {'xid': 'W28051274', 'name': 'Grocery Outlet', 'rate': 1, 'osm': 'way/28051274', 'kinds': 'shops,supermarkets,tourist_facilities', 'point': {'lon': -121.561974, 'lat': 37.001873}}, {'xid': 'W31262546', 'name': 'Safeway', 'rate': 1, 'osm': 'way/31262546', 'kinds': 'shops,supermarkets,tourist_facilities', 'point': {'lon': -121.911911, 'lat': 37.322941}}, {'xid': 'W42784694', 'name': "Casalegno's", 'rate': 1, 'osm': 'way/42784694', 'kinds': 'shops,supermarkets,tourist_facilities', 'point': {'lon': -121.946716, 'lat': 37.032738}}, {'xid': 'W128512250', 'name': 'Safeway 1502', 'rate': 1, 'osm': 'way/128512250', 'kinds': 'shops,supermarkets,tourist_facilities', 'point': {'lon': -121.874428, 'lat': 37.674809}}, {'xid': 'W177263831', 'name': 'Safeway', 'rate': 1, 'osm': 'way/177263831', 'kinds': 'shops,supermarkets,tourist_facilities', 'point': {'lon': -121.989395, 'lat': 37.54528}}, {'xid': 'W191002418', 'name': 'Safeway', 'rate': 1, 'osm': 'way/191002418', 'kinds': 'shops,supermarkets,tourist_facilities', 'point': {'lon': -121.449409, 'lat': 37.740074}}, {'xid': 'W192181751', 'name': 'Walmart Supercenter', 'rate': 1, 'osm': 'way/192181751', 'kinds': 'shops,supermarkets,tourist_facilities', 'point': {'lon': -121.880165, 'lat': 37.255421}}, {'xid': 'W224902292', 'name': 'Safeway 1257', 'rate': 1, 'osm': 'way/224902292', 'kinds': 'shops,supermarkets,tourist_facilities', 'point': {'lon': -121.74295, 'lat': 37.695278}}, {'xid': 'W239400356', 'name': 'Safeway 0997', 'rate': 1, 'osm': 'way/239400356', 'kinds': 'shops,supermarkets,tourist_facilities', 'point': {'lon': -121.908348, 'lat': 37.253071}}, {'xid': 'W239401342', 'name': 'FoodMaxx', 'rate': 1, 'osm': 'way/239401342', 'kinds': 'shops,supermarkets,tourist_facilities', 'point': {'lon': -121.820595, 'lat': 37.354233}}, {'xid': 'W239713688', 'name': 'Safeway', 'rate': 1, 'osm': 'way/239713688', 'kinds': 'shops,supermarkets,tourist_facilities', 'point': {'lon': -121.833191, 'lat': 37.267269}}, {'xid': 'W239716066', 'name': 'Safeway 1574', 'rate': 1, 'osm': 'way/239716066', 'kinds': 'shops,supermarkets,tourist_facilities', 'point': {'lon': -121.874481, 'lat': 37.260178}}, {'xid': 'W239719276', 'name': 'Safeway', 'rate': 1, 'osm': 'way/239719276', 'kinds': 'shops,supermarkets,tourist_facilities', 'point': {'lon': -121.992767, 'lat': 37.320457}}, {'xid': 'W239728576', 'name': 'Safeway 0700', 'rate': 1, 'osm': 'way/239728576', 'kinds': 'shops,supermarkets,tourist_facilities', 'point': {'lon': -121.975174, 'lat': 37.337803}}, {'xid': 'W239729391', 'name': 'Safeway', 'rate': 1, 'osm': 'way/239729391', 'kinds': 'shops,supermarkets,tourist_facilities', 'point': {'lon': -121.947601, 'lat': 37.394733}}, {'xid': 'W252242568', 'name': 'Safeway', 'rate': 1, 'osm': 'way/252242568', 'kinds': 'shops,supermarkets,tourist_facilities', 'point': {'lon': -121.63932, 'lat': 37.112808}}, {'xid': 'W252246859', 'name': 'Safeway 1879', 'rate': 1, 'osm': 'way/252246859', 'kinds': 'shops,supermarkets,tourist_facilities', 'point': {'lon': -121.898026, 'lat': 37.435005}}, {'xid': 'W252719425', 'name': 'Safeway 0910', 'rate': 1, 'osm': 'way/252719425', 'kinds': 'shops,supermarkets,tourist_facilities', 'point': {'lon': -121.777351, 'lat': 37.680466}}, {'xid': 'W253142669', 'name': 'Safeway 0993', 'rate': 1, 'osm': 'way/253142669', 'kinds': 'shops,supermarkets,tourist_facilities', 'point': {'lon': -121.957153, 'lat': 37.531578}}, {'xid': 'W253587333', 'name': 'Safeway', 'rate': 1, 'osm': 'way/253587333', 'kinds': 'shops,supermarkets,tourist_facilities', 'point': {'lon': -121.874069, 'lat': 37.706673}}, {'xid': 'W253766161', 'name': 'Safeway 1195', 'rate': 1, 'osm': 'way/253766161', 'kinds': 'shops,supermarkets,tourist_facilities', 'point': {'lon': -121.953453, 'lat': 37.953793}}, {'xid': 'W302352191', 'name': 'Nob Hill Foods', 'rate': 1, 'osm': 'way/302352191', 'kinds': 'shops,supermarkets,tourist_facilities', 'point': {'lon': -121.642471, 'lat': 37.110264}}, {'xid': 'W309620808', 'name': 'Lucky', 'rate': 1, 'osm': 'way/309620808', 'kinds': 'shops,supermarkets,tourist_facilities', 'point': {'lon': -121.829338, 'lat': 37.380939}}, {'xid': 'W319496960', 'name': 'Food 4 Less', 'rate': 1, 'osm': 'way/319496960', 'kinds': 'shops,supermarkets,tourist_facilities', 'point': {'lon': -121.199928, 'lat': 37.796089}}, {'xid': 'W338746232', 'name': 'Whole Foods Market', 'rate': 1, 'osm': 'way/338746232', 'kinds': 'shops,supermarkets,tourist_facilities', 'point': {'lon': -121.904816, 'lat': 37.332127}}, {'xid': 'W350264238', 'name': 'Thiên Thanh Supermarket', 'rate': 1, 'osm': 'way/350264238', 'kinds': 'shops,supermarkets,tourist_facilities', 'point': {'lon': -121.868607, 'lat': 37.324715}}, {'xid': 'W384616448', 'name': "Gene's Fine Foods", 'rate': 1, 'osm': 'way/384616448', 'kinds': 'shops,supermarkets,tourist_facilities', 'point': {'lon': -121.895142, 'lat': 37.675621}}, {'xid': 'W438908869', 'name': 'Whole Foods Market', 'rate': 1, 'osm': 'way/438908869', 'kinds': 'shops,supermarkets,tourist_facilities', 'point': {'lon': -121.975922, 'lat': 37.38089}}, {'xid': 'N721776350', 'name': 'Morgan Hill Foods', 'rate': 1, 'osm': 'node/721776350', 'kinds': 'shops,supermarkets,tourist_facilities', 'point': {'lon': -121.659706, 'lat': 37.128872}}, {'xid': 'N1005933001', 'name': 'Grocery Outlet', 'rate': 1, 'osm': 'node/1005933001', 'kinds': 'shops,supermarkets,tourist_facilities', 'point': {'lon': -121.779846, 'lat': 37.68074}}, {'xid': 'N1078357957', 'name': "Trader Joe's", 'rate': 1, 'osm': 'node/1078357957', 'kinds': 'shops,supermarkets,tourist_facilities', 'point': {'lon': -121.957687, 'lat': 37.244579}}, {'xid': 'N1113795573', 'name': 'Kachy Produce', 'rate': 1, 'osm': 'node/1113795573', 'kinds': 'shops,supermarkets,tourist_facilities', 'point': {'lon': -121.576965, 'lat': 37.02256}}, {'xid': 'N1506099723', 'name': "Rocca's Market", 'rate': 1, 'osm': 'node/1506099723', 'kinds': 'shops,supermarkets,tourist_facilities', 'point': {'lon': -121.611015, 'lat': 37.085392}}, {'xid': 'N1543828800', 'name': "Raley's", 'rate': 1, 'osm': 'node/1543828800', 'kinds': 'shops,supermarkets,tourist_facilities', 'point': {'lon': -121.979057, 'lat': 37.553589}}, {'xid': 'N1607884652', 'name': 'Qwik Serve', 'rate': 1, 'osm': 'node/1607884652', 'kinds': 'shops,supermarkets,tourist_facilities', 'point': {'lon': -121.072136, 'lat': 37.393005}}, {'xid': 'N1680552206', 'name': 'Whole Foods Market', 'rate': 1, 'osm': 'node/1680552206', 'kinds': 'shops,supermarkets,tourist_facilities', 'point': {'lon': -121.961662, 'lat': 37.236084}}, {'xid': 'N1700633025', 'name': 'Smart and Final', 'rate': 1, 'osm': 'node/1700633025', 'kinds': 'shops,supermarkets,tourist_facilities', 'point': {'lon': -121.902512, 'lat': 37.447639}}, {'xid': 'N1729192485', 'name': "Raley's", 'rate': 1, 'osm': 'node/1729192485', 'kinds': 'shops,supermarkets,tourist_facilities', 'point': {'lon': -121.432671, 'lat': 37.712475}}, {'xid': 'N1744636503', 'name': 'Mercado California', 'rate': 1, 'osm': 'node/1744636503', 'kinds': 'shops,supermarkets,tourist_facilities', 'point': {'lon': -121.807762, 'lat': 37.259293}}, {'xid': 'N1832316004', 'name': 'Savemart', 'rate': 1, 'osm': 'node/1832316004', 'kinds': 'shops,supermarkets,tourist_facilities', 'point': {'lon': -121.288139, 'lat': 37.823204}}, {'xid': 'N1920275837', 'name': 'Walgreens', 'rate': 1, 'osm': 'node/1920275837', 'kinds': 'shops,supermarkets,tourist_facilities', 'point': {'lon': -121.954895, 'lat': 37.952305}}, {'xid': 'N1925608546', 'name': 'Target', 'rate': 1, 'osm': 'node/1925608546', 'kinds': 'shops,supermarkets,tourist_facilities', 'point': {'lon': -121.91877, 'lat': 37.265083}}, {'xid': 'N1925626241', 'name': 'Lucky', 'rate': 1, 'osm': 'node/1925626241', 'kinds': 'shops,supermarkets,tourist_facilities', 'point': {'lon': -121.932564, 'lat': 37.262897}}, {'xid': 'N1931728186', 'name': 'Big Lots', 'rate': 1, 'osm': 'node/1931728186', 'kinds': 'shops,supermarkets,tourist_facilities', 'point': {'lon': -121.918579, 'lat': 37.261738}}, {'xid': 'N2104739903', 'name': 'Lucky', 'rate': 1, 'osm': 'node/2104739903', 'kinds': 'shops,supermarkets,tourist_facilities', 'point': {'lon': -121.775047, 'lat': 37.692665}}, {'xid': 'N2104775676', 'name': "Trader Joe's", 'rate': 1, 'osm': 'node/2104775676', 'kinds': 'shops,supermarkets,tourist_facilities', 'point': {'lon': -121.781799, 'lat': 37.680088}}, {'xid': 'N2162251896', 'name': 'Sprouts Farmers Market', 'rate': 1, 'osm': 'node/2162251896', 'kinds': 'shops,supermarkets,tourist_facilities', 'point': {'lon': -121.992371, 'lat': 37.292717}}, {'xid': 'N2162281152', 'name': 'Smart & Final', 'rate': 1, 'osm': 'node/2162281152', 'kinds': 'shops,supermarkets,tourist_facilities', 'point': {'lon': -121.994324, 'lat': 37.293591}}, {'xid': 'N2418553451', 'name': 'Lucky', 'rate': 1, 'osm': 'node/2418553451', 'kinds': 'shops,supermarkets,tourist_facilities', 'point': {'lon': -121.944374, 'lat': 37.72401}}, {'xid': 'N2503295303', 'name': 'FoodMaxx', 'rate': 1, 'osm': 'node/2503295303', 'kinds': 'shops,supermarkets,tourist_facilities', 'point': {'lon': -121.781914, 'lat': 37.965298}}, {'xid': 'N2510589067', 'name': 'Luck 7 Supermercado', 'rate': 1, 'osm': 'node/2510589067', 'kinds': 'shops,supermarkets,tourist_facilities', 'point': {'lon': -121.848114, 'lat': 37.345612}}, {'xid': 'N2604149621', 'name': 'New Wing Yuan Market', 'rate': 1, 'osm': 'node/2604149621', 'kinds': 'shops,supermarkets,tourist_facilities', 'point': {'lon': -121.996941, 'lat': 37.397564}}, {'xid': 'N2607378267', 'name': 'Nob Hill', 'rate': 1, 'osm': 'node/2607378267', 'kinds': 'shops,supermarkets,tourist_facilities', 'point': {'lon': -121.832314, 'lat': 37.237652}}, {'xid': 'N2620441931', 'name': 'Grocery Outlet', 'rate': 1, 'osm': 'node/2620441931', 'kinds': 'shops,supermarkets,tourist_facilities', 'point': {'lon': -121.883995, 'lat': 37.338306}}, {'xid': 'N2672383507', 'name': 'Ranch 99', 'rate': 1, 'osm': 'node/2672383507', 'kinds': 'shops,supermarkets,tourist_facilities', 'point': {'lon': -121.930733, 'lat': 37.48811}}, {'xid': 'N2894793605', 'name': 'Walmart Neighborhood Market', 'rate': 1, 'osm': 'node/2894793605', 'kinds': 'shops,supermarkets,tourist_facilities', 'point': {'lon': -121.973183, 'lat': 37.321667}}, {'xid': 'N3137935930', 'name': 'Lucky', 'rate': 1, 'osm': 'node/3137935930', 'kinds': 'shops,supermarkets,tourist_facilities', 'point': {'lon': -121.966789, 'lat': 37.329182}}, {'xid': 'N3560256373', 'name': 'Maxim', 'rate': 1, 'osm': 'node/3560256373', 'kinds': 'shops,supermarkets,tourist_facilities', 'point': {'lon': -121.856194, 'lat': 37.334236}}, {'xid': 'N3579138983', 'name': 'Lion Market', 'rate': 1, 'osm': 'node/3579138983', 'kinds': 'shops,supermarkets,tourist_facilities', 'point': {'lon': -121.824043, 'lat': 37.300549}}, {'xid': 'N3700418046', 'name': 'Lion Supermarket', 'rate': 1, 'osm': 'node/3700418046', 'kinds': 'shops,supermarkets,tourist_facilities', 'point': {'lon': -121.82383, 'lat': 37.321144}}, {'xid': 'N4295465790', 'name': 'Express Market', 'rate': 1, 'osm': 'node/4295465790', 'kinds': 'shops,supermarkets,tourist_facilities', 'point': {'lon': -121.831253, 'lat': 37.235954}}, {'xid': 'N4655661873', 'name': "Lucky's Supermarkets", 'rate': 1, 'osm': 'node/4655661873', 'kinds': 'shops,supermarkets,tourist_facilities', 'point': {'lon': -121.823936, 'lat': 37.990616}}, {'xid': 'N4665254389', 'name': 'Lucky', 'rate': 1, 'osm': 'node/4665254389', 'kinds': 'shops,supermarkets,tourist_facilities', 'point': {'lon': -121.790314, 'lat': 37.315311}}, {'xid': 'N4685660792', 'name': 'Lakshmi Bazaar', 'rate': 1, 'osm': 'node/4685660792', 'kinds': 'shops,supermarkets,tourist_facilities', 'point': {'lon': -121.994949, 'lat': 37.308895}}, {'xid': 'N4709221189', 'name': "dd's Discounts", 'rate': 1, 'osm': 'node/4709221189', 'kinds': 'shops,supermarkets,tourist_facilities', 'point': {'lon': -121.922905, 'lat': 37.305027}}, {'xid': 'N4714747788', 'name': 'Safeway', 'rate': 1, 'osm': 'node/4714747788', 'kinds': 'shops,supermarkets,tourist_facilities', 'point': {'lon': -121.890709, 'lat': 37.305943}}, {'xid': 'N4770055625', 'name': 'Las Palmas', 'rate': 1, 'osm': 'node/4770055625', 'kinds': 'shops,supermarkets,tourist_facilities', 'point': {'lon': -121.977989, 'lat': 37.305546}}, {'xid': 'N5080242674', 'name': 'Save Mart', 'rate': 1, 'osm': 'node/5080242674', 'kinds': 'shops,supermarkets,tourist_facilities', 'point': {'lon': -121.91153, 'lat': 37.428631}}, {'xid': 'N5207580624', 'name': 'Patel indian Grocery', 'rate': 1, 'osm': 'node/5207580624', 'kinds': 'shops,supermarkets,tourist_facilities', 'point': {'lon': -121.947578, 'lat': 37.771561}}, {'xid': 'N5249822272', 'name': "Trader Joe's", 'rate': 1, 'osm': 'node/5249822272', 'kinds': 'shops,supermarkets,tourist_facilities', 'point': {'lon': -121.876999, 'lat': 37.696922}}, {'xid': 'N5780848800', 'name': 'H Mart', 'rate': 1, 'osm': 'node/5780848800', 'kinds': 'shops,supermarkets,tourist_facilities', 'point': {'lon': -121.894524, 'lat': 37.383831}}, {'xid': 'N6025772311', 'name': 'Lucky', 'rate': 1, 'osm': 'node/6025772311', 'kinds': 'shops,supermarkets,tourist_facilities', 'point': {'lon': -121.85363, 'lat': 37.704548}}, {'xid': 'N6320053641', 'name': 'Sprouts Farmers Market', 'rate': 1, 'osm': 'node/6320053641', 'kinds': 'shops,supermarkets,tourist_facilities', 'point': {'lon': -121.734955, 'lat': 37.944229}}, {'xid': 'N6383660412', 'name': 'Mi Ranchito Produce', 'rate': 1, 'osm': 'node/6383660412', 'kinds': 'shops,supermarkets,tourist_facilities', 'point': {'lon': -121.8452, 'lat': 37.358166}}, {'xid': 'N6383699035', 'name': 'Chavez Supermarket', 'rate': 1, 'osm': 'node/6383699035', 'kinds': 'shops,supermarkets,tourist_facilities', 'point': {'lon': -121.849739, 'lat': 37.367393}}, {'xid': 'N6682154727', 'name': 'Ocean Supermarket', 'rate': 1, 'osm': 'node/6682154727', 'kinds': 'shops,supermarkets,tourist_facilities', 'point': {'lon': -121.883186, 'lat': 37.435368}}, {'xid': 'W37664863', 'name': "Lunardi's", 'rate': 1, 'osm': 'way/37664863', 'kinds': 'shops,supermarkets,tourist_facilities', 'point': {'lon': -121.934593, 'lat': 37.272953}}, {'xid': 'W44803478', 'name': 'Grocery Outlet', 'rate': 1, 'osm': 'way/44803478', 'kinds': 'shops,supermarkets,tourist_facilities', 'point': {'lon': -121.951401, 'lat': 37.30801}}, {'xid': 'W230078182', 'name': 'Sprouts Farmers Market', 'rate': 1, 'osm': 'way/230078182', 'kinds': 'shops,supermarkets,tourist_facilities', 'point': {'lon': -121.969727, 'lat': 37.77734}}, {'xid': 'W239390519', 'name': 'Safeway 0982', 'rate': 1, 'osm': 'way/239390519', 'kinds': 'shops,supermarkets,tourist_facilities', 'point': {'lon': -121.976868, 'lat': 37.77319}}, {'xid': 'W239727558', 'name': 'Safeway 0763', 'rate': 1, 'osm': 'way/239727558', 'kinds': 'shops,supermarkets,tourist_facilities', 'point': {'lon': -121.936409, 'lat': 37.345154}}, {'xid': 'W239798247', 'name': 'Safeway 2856', 'rate': 1, 'osm': 'way/239798247', 'kinds': 'shops,supermarkets,tourist_facilities', 'point': {'lon': -121.899467, 'lat': 37.656105}}, {'xid': 'W304942894', 'name': 'Newman Meat Market', 'rate': 1, 'osm': 'way/304942894', 'kinds': 'shops,supermarkets,tourist_facilities', 'point': {'lon': -121.023392, 'lat': 37.314133}}, {'xid': 'W311695767', 'name': 'Diamond Food Center', 'rate': 1, 'osm': 'way/311695767', 'kinds': 'shops,supermarkets,tourist_facilities', 'point': {'lon': -121.011909, 'lat': 37.248859}}, {'xid': 'W329251265', 'name': 'Contreras Market', 'rate': 1, 'osm': 'way/329251265', 'kinds': 'shops,supermarkets,tourist_facilities', 'point': {'lon': -121.784637, 'lat': 37.688213}}, {'xid': 'W332156249', 'name': 'Whole Foods Market', 'rate': 1, 'osm': 'way/332156249', 'kinds': 'shops,supermarkets,tourist_facilities', 'point': {'lon': -121.889824, 'lat': 37.705826}}, {'xid': 'W355360067', 'name': 'El Sol Market', 'rate': 1, 'osm': 'way/355360067', 'kinds': 'shops,supermarkets,tourist_facilities', 'point': {'lon': -121.888618, 'lat': 37.355473}}, {'xid': 'W693762846', 'name': 'Walmart', 'rate': 1, 'osm': 'way/693762846', 'kinds': 'shops,supermarkets,tourist_facilities', 'point': {'lon': -121.037071, 'lat': 37.673515}}, {'xid': 'W24969101', 'name': 'Walmart Supercenter', 'rate': 1, 'osm': 'way/24969101', 'kinds': 'shops,supermarkets,tourist_facilities', 'point': {'lon': -121.218613, 'lat': 37.785332}}, {'xid': 'W29688838', 'name': "Trader Joe's", 'rate': 1, 'osm': 'way/29688838', 'kinds': 'shops,supermarkets,tourist_facilities', 'point': {'lon': -121.63826, 'lat': 37.131184}}, {'xid': 'W37928552', 'name': 'Smart and Final Extra', 'rate': 1, 'osm': 'way/37928552', 'kinds': 'shops,supermarkets,tourist_facilities', 'point': {'lon': -121.841454, 'lat': 37.338684}}, {'xid': 'W39020219', 'name': 'Chaparral Supermarket', 'rate': 1, 'osm': 'way/39020219', 'kinds': 'shops,supermarkets,tourist_facilities', 'point': {'lon': -121.870567, 'lat': 37.345982}}, {'xid': 'W40254376', 'name': 'Walmart', 'rate': 1, 'osm': 'way/40254376', 'kinds': 'shops,supermarkets,tourist_facilities', 'point': {'lon': -121.985664, 'lat': 37.520245}}, {'xid': 'W128805721', 'name': 'Lucky', 'rate': 1, 'osm': 'way/128805721', 'kinds': 'shops,supermarkets,tourist_facilities', 'point': {'lon': -121.905441, 'lat': 37.682541}}, {'xid': 'W129011794', 'name': 'Walmart Neighborhood Market', 'rate': 1, 'osm': 'way/129011794', 'kinds': 'shops,supermarkets,tourist_facilities', 'point': {'lon': -121.87693, 'lat': 37.69001}}, {'xid': 'N2104739451', 'name': 'Lucky', 'rate': 1, 'osm': 'node/2104739451', 'kinds': 'shops,supermarkets,tourist_facilities', 'point': {'lon': -121.781517, 'lat': 37.661472}}, {'xid': 'N3626119665', 'name': '', 'rate': 0, 'osm': 'node/3626119665', 'kinds': 'shops,supermarkets,tourist_facilities', 'point': {'lon': -121.852112, 'lat': 37.295631}}, {'xid': 'N3560256861', 'name': '', 'rate': 0, 'osm': 'node/3560256861', 'kinds': 'shops,supermarkets,tourist_facilities', 'point': {'lon': -121.852463, 'lat': 37.332935}}]