[{"xid":"W494913675","name":"Walmart Supercenter","rate":1,"osm":"way/494913675","kinds":"shops,supermarkets,tourist_facilities","point":{"lon":-92.645966,"lat":37.663429}},{"xid":"W510028287","name":"ALDI","rate":1,"osm":"way/510028287","kinds":"shops,supermarkets,tourist_facilities","point":{"lon":-92.656532,"lat":37.676064}},{"xid":"W547123308","name":"Dollar General","rate":1,"osm":"way/547123308","kinds":"shops,supermarkets,tourist_facilities","point":{"lon":-92.578491,"lat":37.112606}},{"xid":"N2767129189","name":"Shetler's Discount Grocery","rate":1,"osm":"node/2767129189","kinds":"shops,supermarkets,tourist_facilities","point":{"lon":-92.09819,"lat":37.11211}},{"xid":"N4524981990","name":"Summer Fresh","rate":1,"osm":"node/4524981990","kinds":"shops,supermarkets,tourist_facilities","point":{"lon":-92.825668,"lat":37.502129}},{"xid":"W450284738","name":"Walmart Supercenter","rate":1,"osm":"way/450284738","kinds":"shops,supermarkets,tourist_facilities","point":{"lon":-92.93985,"lat":37.337856}},{"xid":"W607208263","name":"Price Cutter","rate":1,"osm":"way/607208263","kinds":"shops,supermarkets,tourist_facilities","point":{"lon":-92.917778,"lat":37.338936}},{"xid":"W242162263","name":"Walmart Supercenter","rate":1,"osm":"way/242162263","kinds":"shops,supermarkets,tourist_facilities","point":{"lon":-92.152267,"lat":37.825203}},{"xid":"N2767129244","name":"Town & Country Supermarket","rate":1,"osm":"node/2767129244","kinds":"shops,supermarkets,tourist_facilities","point":{"lon":-92.103539,"lat":37.123116}},{"xid":"W547123304","name":"Town & Country","rate":1,"osm":"way/547123304","kinds":"shops,supermarkets,tourist_facilities","point":{"lon":-92.580383,"lat":37.105171}},{"xid":"W570841194","name":"Price Cutter","rate":1,"osm":"way/570841194","kinds":"shops,supermarkets,tourist_facilities","point":{"lon":-92.225327,"lat":37.809937}},{"xid":"W679010263","name":"Walmart Supercenter","rate":1,"osm":"way/679010263","kinds":"shops,supermarkets,tourist_facilities","point":{"lon":-92.259537,"lat":37.149902}}]