[{'xid': 'W230738764', 'name': 'Family Dollar', 'rate': 1, 'osm': 'way/230738764', 'kinds': 'shops,supermarkets,tourist_facilities', 'point': {'lon': -82.631805, 'lat': 37.55481}}, {'xid': 'W306728503', 'name': 'Walmart Supercenter', 'rate': 1, 'osm': 'way/306728503', 'kinds': 'shops,supermarkets,tourist_facilities', 'point': {'lon': -82.102005, 'lat': 37.277809}}, {'xid': 'W375244496', 'name': 'Inez Shoprite', 'rate': 1, 'osm': 'way/375244496', 'kinds': 'shops,supermarkets,tourist_facilities', 'point': {'lon': -82.540848, 'lat': 37.868385}}, {'xid': 'W375244801', 'name': 'Inez Dollar Store', 'rate': 1, 'osm': 'way/375244801', 'kinds': 'shops,supermarkets,tourist_facilities', 'point': {'lon': -82.541214, 'lat': 37.869148}}, {'xid': 'W546881785', 'name': 'Saba Market', 'rate': 1, 'osm': 'way/546881785', 'kinds': 'shops,supermarkets,tourist_facilities', 'point': {'lon': -82.600533, 'lat': 37.123276}}, {'xid': 'W557056993', 'name': 'Quality Foods', 'rate': 1, 'osm': 'way/557056993', 'kinds': 'shops,supermarkets,tourist_facilities', 'point': {'lon': -82.538673, 'lat': 37.386719}}, {'xid': 'W588979219', 'name': 'Walmart', 'rate': 1, 'osm': 'way/588979219', 'kinds': 'shops,supermarkets,tourist_facilities', 'point': {'lon': -82.794724, 'lat': 37.117065}}, {'xid': 'N1569272459', 'name': 'Foodland IGA', 'rate': 1, 'osm': 'node/1569272459', 'kinds': 'shops,supermarkets,tourist_facilities', 'point': {'lon': -82.598633, 'lat': 37.117786}}, {'xid': 'N2496353892', 'name': "Casey's IGA", 'rate': 1, 'osm': 'node/2496353892', 'kinds': 'shops,supermarkets,tourist_facilities', 'point': {'lon': -82.942146, 'lat': 37.314407}}, {'xid': 'W343379999', 'name': 'Walmart Supercenter', 'rate': 1, 'osm': 'way/343379999', 'kinds': 'shops,supermarkets,tourist_facilities', 'point': {'lon': -82.271034, 'lat': 37.658958}}, {'xid': 'W392190049', 'name': 'Food City', 'rate': 1, 'osm': 'way/392190049', 'kinds': 'shops,supermarkets,tourist_facilities', 'point': {'lon': -82.270401, 'lat': 37.653667}}, {'xid': 'W302992592', 'name': 'Warfield Shop-Rite', 'rate': 1, 'osm': 'way/302992592', 'kinds': 'shops,supermarkets,tourist_facilities', 'point': {'lon': -82.418282, 'lat': 37.842564}}, {'xid': 'W597398397', 'name': 'Food City', 'rate': 1, 'osm': 'way/597398397', 'kinds': 'shops,supermarkets,tourist_facilities', 'point': {'lon': -82.782234, 'lat': 37.68404}}, {'xid': 'N2496353891', 'name': 'Save-A-Lot', 'rate': 1, 'osm': 'node/2496353891', 'kinds': 'shops,supermarkets,tourist_facilities', 'point': {'lon': -82.939705, 'lat': 37.314648}}, {'xid': 'N2496353900', 'name': "Denny's Grocery", 'rate': 1, 'osm': 'node/2496353900', 'kinds': 'shops,supermarkets,tourist_facilities', 'point': {'lon': -82.887367, 'lat': 37.325912}}, {'xid': 'N2496353901', 'name': 'Exxon Double Quick', 'rate': 1, 'osm': 'node/2496353901', 'kinds': 'shops,supermarkets,tourist_facilities', 'point': {'lon': -82.957924, 'lat': 37.320152}}, {'xid': 'N3872953199', 'name': 'Velocity Market', 'rate': 1, 'osm': 'node/3872953199', 'kinds': 'shops,supermarkets,tourist_facilities', 'point': {'lon': -82.633339, 'lat': 37.55011}}, {'xid': 'W449990764', 'name': 'Walmart Supercenter', 'rate': 1, 'osm': 'way/449990764', 'kinds': 'shops,supermarkets,tourist_facilities', 'point': {'lon': -82.54039, 'lat': 37.506969}}, {'xid': 'W468022106', 'name': 'Walmart Supercenter', 'rate': 1, 'osm': 'way/468022106', 'kinds': 'shops,supermarkets,tourist_facilities', 'point': {'lon': -82.04438, 'lat': 37.859894}}, {'xid': 'W642760272', 'name': 'Walmart', 'rate': 1, 'osm': 'way/642760272', 'kinds': 'shops,supermarkets,tourist_facilities', 'point': {'lon': -82.781845, 'lat': 37.655087}}, {'xid': 'W592762616', 'name': 'Food City', 'rate': 1, 'osm': 'way/592762616', 'kinds': 'shops,supermarkets,tourist_facilities', 'point': {'lon': -82.819847, 'lat': 37.821423}}]