[{'xid': 'W338231091', 'name': "Shop 'n Save", 'rate': 1, 'osm': 'way/338231091', 'kinds': 'shops,supermarkets,tourist_facilities', 'point': {'lon': -79.754921, 'lat': 39.820595}}, {'xid': 'W338329014', 'name': "Shop 'N Save", 'rate': 1, 'osm': 'way/338329014', 'kinds': 'shops,supermarkets,tourist_facilities', 'point': {'lon': -79.7379, 'lat': 39.881413}}, {'xid': 'W338333346', 'name': "Aldi's", 'rate': 1, 'osm': 'way/338333346', 'kinds': 'shops,supermarkets,tourist_facilities', 'point': {'lon': -79.733795, 'lat': 39.883224}}, {'xid': 'W399014711', 'name': 'Highland Market', 'rate': 1, 'osm': 'way/399014711', 'kinds': 'shops,supermarkets,tourist_facilities', 'point': {'lon': -79.469093, 'lat': 39.12727}}, {'xid': 'W639530091', 'name': 'Walmart Supercenter', 'rate': 1, 'osm': 'way/639530091', 'kinds': 'shops,supermarkets,tourist_facilities', 'point': {'lon': -79.733612, 'lat': 39.486908}}, {'xid': 'N1335228421', 'name': 'Shop n Save', 'rate': 1, 'osm': 'node/1335228421', 'kinds': 'shops,supermarkets,tourist_facilities', 'point': {'lon': -79.895821, 'lat': 39.650383}}, {'xid': 'N2843379549', 'name': 'ALDI', 'rate': 1, 'osm': 'node/2843379549', 'kinds': 'shops,supermarkets,tourist_facilities', 'point': {'lon': -79.970604, 'lat': 39.613148}}, {'xid': 'N3980715846', 'name': 'Save-A-Lot', 'rate': 1, 'osm': 'node/3980715846', 'kinds': 'shops,supermarkets,tourist_facilities', 'point': {'lon': -79.928734, 'lat': 39.627964}}, {'xid': 'N4150267795', 'name': 'Mountain Peoples Co-op', 'rate': 1, 'osm': 'node/4150267795', 'kinds': 'shops,supermarkets,tourist_facilities', 'point': {'lon': -79.957848, 'lat': 39.629463}}, {'xid': 'N5605861960', 'name': 'Aldi', 'rate': 1, 'osm': 'node/5605861960', 'kinds': 'shops,supermarkets,tourist_facilities', 'point': {'lon': -79.990799, 'lat': 39.655933}}, {'xid': 'N6605646117', 'name': 'Bells Grocery', 'rate': 1, 'osm': 'node/6605646117', 'kinds': 'shops,supermarkets,tourist_facilities', 'point': {'lon': -79.670868, 'lat': 39.34705}}, {'xid': 'W277911359', 'name': 'Walmart Supercenter', 'rate': 1, 'osm': 'way/277911359', 'kinds': 'shops,supermarkets,tourist_facilities', 'point': {'lon': -79.959297, 'lat': 39.578854}}, {'xid': 'W391668243', 'name': 'Walmart', 'rate': 1, 'osm': 'way/391668243', 'kinds': 'shops,supermarkets,tourist_facilities', 'point': {'lon': -79.391083, 'lat': 39.422192}}, {'xid': 'N677133836', 'name': 'Kroger', 'rate': 1, 'osm': 'node/677133836', 'kinds': 'shops,supermarkets,tourist_facilities', 'point': {'lon': -79.941376, 'lat': 39.65089}}, {'xid': 'N2200327050', 'name': 'Summit Country Market', 'rate': 1, 'osm': 'node/2200327050', 'kinds': 'shops,supermarkets,tourist_facilities', 'point': {'lon': -79.069115, 'lat': 39.814991}}, {'xid': 'W107656670', 'name': 'Kroger', 'rate': 1, 'osm': 'way/107656670', 'kinds': 'shops,supermarkets,tourist_facilities', 'point': {'lon': -79.924911, 'lat': 39.622005}}, {'xid': 'W120256155', 'name': 'Walmart Supercenter', 'rate': 1, 'osm': 'way/120256155', 'kinds': 'shops,supermarkets,tourist_facilities', 'point': {'lon': -79.998482, 'lat': 39.645847}}, {'xid': 'W338329015', 'name': 'Save A Lot', 'rate': 1, 'osm': 'way/338329015', 'kinds': 'shops,supermarkets,tourist_facilities', 'point': {'lon': -79.73748, 'lat': 39.881866}}, {'xid': 'W351701392', 'name': 'Arrowhead Market', 'rate': 1, 'osm': 'way/351701392', 'kinds': 'shops,supermarkets,tourist_facilities', 'point': {'lon': -79.325439, 'lat': 39.503662}}, {'xid': 'W488873834', 'name': 'Walmart Supercenter', 'rate': 1, 'osm': 'way/488873834', 'kinds': 'shops,supermarkets,tourist_facilities', 'point': {'lon': -79.996513, 'lat': 39.358509}}, {'xid': 'W571066490', 'name': 'Uniontown Save A Lot', 'rate': 1, 'osm': 'way/571066490', 'kinds': 'shops,supermarkets,tourist_facilities', 'point': {'lon': -79.693611, 'lat': 39.918793}}, {'xid': 'N2362199616', 'name': "Shop 'N Save", 'rate': 1, 'osm': 'node/2362199616', 'kinds': 'shops,supermarkets,tourist_facilities', 'point': {'lon': -79.356369, 'lat': 39.56295}}, {'xid': 'N4017496681', 'name': "Shop 'n Save", 'rate': 1, 'osm': 'node/4017496681', 'kinds': 'shops,supermarkets,tourist_facilities', 'point': {'lon': -79.461784, 'lat': 39.128845}}, {'xid': 'N4109301529', 'name': 'Walmart Supercenter', 'rate': 1, 'osm': 'node/4109301529', 'kinds': 'shops,supermarkets,tourist_facilities', 'point': {'lon': -79.011459, 'lat': 39.401375}}, {'xid': 'W117980968', 'name': 'Kroger', 'rate': 1, 'osm': 'way/117980968', 'kinds': 'shops,supermarkets,tourist_facilities', 'point': {'lon': -79.968224, 'lat': 39.650387}}, {'xid': 'N5694405209', 'name': '', 'rate': 0, 'osm': 'node/5694405209', 'kinds': 'shops,supermarkets,tourist_facilities', 'point': {'lon': -79.49308, 'lat': 39.868721}}, {'xid': 'W703971734', 'name': '', 'rate': 0, 'osm': 'way/703971734', 'kinds': 'shops,supermarkets,tourist_facilities', 'point': {'lon': -79.671036, 'lat': 39.347015}}]