[{'xid': 'W189152938', 'name': 'ShopRite', 'rate': 1, 'osm': 'way/189152938', 'kinds': 'shops,supermarkets,tourist_facilities', 'point': {'lon': -75.548431, 'lat': 39.824913}}, {'xid': 'W226298590', 'name': 'SuperFresh', 'rate': 1, 'osm': 'way/226298590', 'kinds': 'shops,supermarkets,tourist_facilities', 'point': {'lon': -75.141373, 'lat': 39.923462}}, {'xid': 'W260911792', 'name': 'Wegmans', 'rate': 1, 'osm': 'way/260911792', 'kinds': 'shops,supermarkets,tourist_facilities', 'point': {'lon': -75.034851, 'lat': 39.922947}}, {'xid': 'W265455954', 'name': 'Walmart Supercenter', 'rate': 1, 'osm': 'way/265455954', 'kinds': 'shops,supermarkets,tourist_facilities', 'point': {'lon': -75.129295, 'lat': 39.832592}}, {'xid': 'W265653850', 'name': "Cousin's Supermarket", 'rate': 1, 'osm': 'way/265653850', 'kinds': 'shops,supermarkets,tourist_facilities', 'point': {'lon': -75.088623, 'lat': 39.943527}}, {'xid': 'W266432583', 'name': 'ALDI', 'rate': 1, 'osm': 'way/266432583', 'kinds': 'shops,supermarkets,tourist_facilities', 'point': {'lon': -75.090202, 'lat': 39.920475}}, {'xid': 'W267444800', 'name': 'Shoprite', 'rate': 1, 'osm': 'way/267444800', 'kinds': 'shops,supermarkets,tourist_facilities', 'point': {'lon': -75.110527, 'lat': 39.878162}}, {'xid': 'W336161739', 'name': 'L & L Lucky Market', 'rate': 1, 'osm': 'way/336161739', 'kinds': 'shops,supermarkets,tourist_facilities', 'point': {'lon': -75.155693, 'lat': 39.955074}}, {'xid': 'W364604042', 'name': 'Universal Supermarket', 'rate': 1, 'osm': 'way/364604042', 'kinds': 'shops,supermarkets,tourist_facilities', 'point': {'lon': -75.093071, 'lat': 39.945904}}, {'xid': 'W434963752', 'name': 'Acme', 'rate': 1, 'osm': 'way/434963752', 'kinds': 'shops,supermarkets,tourist_facilities', 'point': {'lon': -75.180305, 'lat': 39.917015}}, {'xid': 'W435352638', 'name': 'ShopRite', 'rate': 1, 'osm': 'way/435352638', 'kinds': 'shops,supermarkets,tourist_facilities', 'point': {'lon': -75.02552, 'lat': 39.803108}}, {'xid': 'W444797402', 'name': 'Oregon Market', 'rate': 1, 'osm': 'way/444797402', 'kinds': 'shops,supermarkets,tourist_facilities', 'point': {'lon': -75.153633, 'lat': 39.912937}}, {'xid': 'W570383493', 'name': 'Acme', 'rate': 1, 'osm': 'way/570383493', 'kinds': 'shops,supermarkets,tourist_facilities', 'point': {'lon': -75.563881, 'lat': 39.757191}}, {'xid': 'W600398930', 'name': 'Food Lion', 'rate': 1, 'osm': 'way/600398930', 'kinds': 'shops,supermarkets,tourist_facilities', 'point': {'lon': -75.723282, 'lat': 39.451736}}, {'xid': 'W635915772', 'name': 'Walmart Supercenter', 'rate': 1, 'osm': 'way/635915772', 'kinds': 'shops,supermarkets,tourist_facilities', 'point': {'lon': -75.951515, 'lat': 39.609806}}, {'xid': 'W686767367', 'name': 'Whole Foods Market', 'rate': 1, 'osm': 'way/686767367', 'kinds': 'shops,supermarkets,tourist_facilities', 'point': {'lon': -75.403793, 'lat': 39.988171}}, {'xid': 'W689237476', 'name': 'Food Lion', 'rate': 1, 'osm': 'way/689237476', 'kinds': 'shops,supermarkets,tourist_facilities', 'point': {'lon': -75.51049, 'lat': 39.7537}}, {'xid': 'W692825775', 'name': 'ShopRite', 'rate': 1, 'osm': 'way/692825775', 'kinds': 'shops,supermarkets,tourist_facilities', 'point': {'lon': -75.746384, 'lat': 39.626423}}, {'xid': 'W702805527', 'name': 'xpressmart', 'rate': 1, 'osm': 'way/702805527', 'kinds': 'shops,supermarkets,tourist_facilities', 'point': {'lon': -75.10099, 'lat': 39.782345}}, {'xid': 'W709074551', 'name': 'Giant Food Stores', 'rate': 1, 'osm': 'way/709074551', 'kinds': 'shops,supermarkets,tourist_facilities', 'point': {'lon': -75.423889, 'lat': 39.867527}}, {'xid': 'N333786275', 'name': 'Whole Foods Philadelphia 2', 'rate': 1, 'osm': 'node/333786275', 'kinds': 'shops,supermarkets,tourist_facilities', 'point': {'lon': -75.158165, 'lat': 39.942963}}, {'xid': 'N342484315', 'name': 'Acme/Savon Logan Township', 'rate': 1, 'osm': 'node/342484315', 'kinds': 'shops,supermarkets,tourist_facilities', 'point': {'lon': -75.354027, 'lat': 39.755737}}, {'xid': 'N363600936', 'name': 'Acme/Savon Audubon', 'rate': 1, 'osm': 'node/363600936', 'kinds': 'shops,supermarkets,tourist_facilities', 'point': {'lon': -75.089386, 'lat': 39.892986}}, {'xid': 'N440131142', 'name': 'Shop-Rite', 'rate': 1, 'osm': 'node/440131142', 'kinds': 'shops,supermarkets,tourist_facilities', 'point': {'lon': -75.213165, 'lat': 39.457317}}, {'xid': 'N615069015', 'name': 'Acme/Savon', 'rate': 1, 'osm': 'node/615069015', 'kinds': 'shops,supermarkets,tourist_facilities', 'point': {'lon': -75.378616, 'lat': 39.915985}}, {'xid': 'N634366911', 'name': 'ShopRite', 'rate': 1, 'osm': 'node/634366911', 'kinds': 'shops,supermarkets,tourist_facilities', 'point': {'lon': -75.2239, 'lat': 39.978027}}, {'xid': 'N763168159', 'name': 'Food Lion', 'rate': 1, 'osm': 'node/763168159', 'kinds': 'shops,supermarkets,tourist_facilities', 'point': {'lon': -75.798309, 'lat': 39.603958}}, {'xid': 'N794758629', 'name': 'Acme Markets', 'rate': 1, 'osm': 'node/794758629', 'kinds': 'shops,supermarkets,tourist_facilities', 'point': {'lon': -75.058762, 'lat': 39.907536}}, {'xid': 'N918509267', 'name': 'Acme Markets', 'rate': 1, 'osm': 'node/918509267', 'kinds': 'shops,supermarkets,tourist_facilities', 'point': {'lon': -75.287193, 'lat': 39.961018}}, {'xid': 'N977690451', 'name': 'Acme', 'rate': 1, 'osm': 'node/977690451', 'kinds': 'shops,supermarkets,tourist_facilities', 'point': {'lon': -75.139122, 'lat': 39.968899}}, {'xid': 'N1049065161', 'name': 'Acme', 'rate': 1, 'osm': 'node/1049065161', 'kinds': 'shops,supermarkets,tourist_facilities', 'point': {'lon': -75.34127, 'lat': 39.644928}}, {'xid': 'N1224753302', 'name': 'Shoprite', 'rate': 1, 'osm': 'node/1224753302', 'kinds': 'shops,supermarkets,tourist_facilities', 'point': {'lon': -75.009338, 'lat': 39.990894}}, {'xid': 'N1224799096', 'name': 'Acme', 'rate': 1, 'osm': 'node/1224799096', 'kinds': 'shops,supermarkets,tourist_facilities', 'point': {'lon': -75.075531, 'lat': 39.747501}}, {'xid': 'N1242671166', 'name': 'Acme Supermarket', 'rate': 1, 'osm': 'node/1242671166', 'kinds': 'shops,supermarkets,tourist_facilities', 'point': {'lon': -75.030685, 'lat': 39.896549}}, {'xid': 'N1252099766', 'name': 'Shoprite', 'rate': 1, 'osm': 'node/1252099766', 'kinds': 'shops,supermarkets,tourist_facilities', 'point': {'lon': -75.041679, 'lat': 39.867565}}, {'xid': 'N1325781370', 'name': 'Giant', 'rate': 1, 'osm': 'node/1325781370', 'kinds': 'shops,supermarkets,tourist_facilities', 'point': {'lon': -75.297127, 'lat': 39.921227}}, {'xid': 'N1372286369', 'name': 'K-Mart', 'rate': 1, 'osm': 'node/1372286369', 'kinds': 'shops,supermarkets,tourist_facilities', 'point': {'lon': -75.759041, 'lat': 39.994919}}, {'xid': 'N1398007743', 'name': 'Foodlion', 'rate': 1, 'osm': 'node/1398007743', 'kinds': 'shops,supermarkets,tourist_facilities', 'point': {'lon': -75.590988, 'lat': 39.280163}}, {'xid': 'N1443830108', 'name': 'ShopRite', 'rate': 1, 'osm': 'node/1443830108', 'kinds': 'shops,supermarkets,tourist_facilities', 'point': {'lon': -75.045097, 'lat': 39.422848}}, {'xid': 'N1513615389', 'name': 'Acme', 'rate': 1, 'osm': 'node/1513615389', 'kinds': 'shops,supermarkets,tourist_facilities', 'point': {'lon': -75.735344, 'lat': 39.682648}}, {'xid': 'N1558298212', 'name': 'ShopRite', 'rate': 1, 'osm': 'node/1558298212', 'kinds': 'shops,supermarkets,tourist_facilities', 'point': {'lon': -75.573074, 'lat': 39.970356}}, {'xid': 'N1559444137', 'name': 'Acme/Savon', 'rate': 1, 'osm': 'node/1559444137', 'kinds': 'shops,supermarkets,tourist_facilities', 'point': {'lon': -75.587242, 'lat': 39.969864}}, {'xid': 'N1572151119', 'name': 'Whole Foods Market', 'rate': 1, 'osm': 'node/1572151119', 'kinds': 'shops,supermarkets,tourist_facilities', 'point': {'lon': -75.542786, 'lat': 39.86338}}, {'xid': 'N1654953324', 'name': 'Giant', 'rate': 1, 'osm': 'node/1654953324', 'kinds': 'shops,supermarkets,tourist_facilities', 'point': {'lon': -75.622215, 'lat': 39.960751}}, {'xid': 'N1740782733', 'name': 'Mullica Hill ShopRite', 'rate': 1, 'osm': 'node/1740782733', 'kinds': 'shops,supermarkets,tourist_facilities', 'point': {'lon': -75.218697, 'lat': 39.724247}}, {'xid': 'N1769660071', 'name': 'Cousins', 'rate': 1, 'osm': 'node/1769660071', 'kinds': 'shops,supermarkets,tourist_facilities', 'point': {'lon': -75.136581, 'lat': 39.991928}}, {'xid': 'N2068540313', 'name': 'Giant Food Stores', 'rate': 1, 'osm': 'node/2068540313', 'kinds': 'shops,supermarkets,tourist_facilities', 'point': {'lon': -75.873734, 'lat': 39.822266}}, {'xid': 'N2100732237', 'name': 'Food Lion', 'rate': 1, 'osm': 'node/2100732237', 'kinds': 'shops,supermarkets,tourist_facilities', 'point': {'lon': -75.624054, 'lat': 39.641182}}, {'xid': 'N2117205401', 'name': 'Acme', 'rate': 1, 'osm': 'node/2117205401', 'kinds': 'shops,supermarkets,tourist_facilities', 'point': {'lon': -75.79847, 'lat': 39.835541}}, {'xid': 'N2123741534', 'name': "Trader Joe's", 'rate': 1, 'osm': 'node/2123741534', 'kinds': 'shops,supermarkets,tourist_facilities', 'point': {'lon': -75.17643, 'lat': 39.954185}}, {'xid': 'N2143480722', 'name': 'Acme', 'rate': 1, 'osm': 'node/2143480722', 'kinds': 'shops,supermarkets,tourist_facilities', 'point': {'lon': -75.354088, 'lat': 39.959923}}, {'xid': 'N2153870024', 'name': "Costa's Supermarket", 'rate': 1, 'osm': 'node/2153870024', 'kinds': 'shops,supermarkets,tourist_facilities', 'point': {'lon': -75.058006, 'lat': 39.962963}}, {'xid': 'N2306346937', 'name': 'Giant', 'rate': 1, 'osm': 'node/2306346937', 'kinds': 'shops,supermarkets,tourist_facilities', 'point': {'lon': -75.302338, 'lat': 39.966644}}, {'xid': 'N2351603375', 'name': 'Shoprite', 'rate': 1, 'osm': 'node/2351603375', 'kinds': 'shops,supermarkets,tourist_facilities', 'point': {'lon': -75.170471, 'lat': 39.804623}}, {'xid': 'N2511003049', 'name': "Redner's Markets", 'rate': 1, 'osm': 'node/2511003049', 'kinds': 'shops,supermarkets,tourist_facilities', 'point': {'lon': -75.975189, 'lat': 39.79464}}, {'xid': 'N2571660270', 'name': 'Giant', 'rate': 1, 'osm': 'node/2571660270', 'kinds': 'shops,supermarkets,tourist_facilities', 'point': {'lon': -75.440376, 'lat': 39.976379}}, {'xid': 'N2573928768', 'name': "Klein's Supermarket", 'rate': 1, 'osm': 'node/2573928768', 'kinds': 'shops,supermarkets,tourist_facilities', 'point': {'lon': -75.177345, 'lat': 39.967129}}, {'xid': 'N2699345500', 'name': 'Museum Deli', 'rate': 1, 'osm': 'node/2699345500', 'kinds': 'shops,supermarkets,tourist_facilities', 'point': {'lon': -75.144516, 'lat': 39.961353}}, {'xid': 'N2912594824', 'name': 'West Bradford Market', 'rate': 1, 'osm': 'node/2912594824', 'kinds': 'shops,supermarkets,tourist_facilities', 'point': {'lon': -75.697701, 'lat': 39.960968}}, {'xid': 'N2941741368', 'name': "Redner's Warehouse Market", 'rate': 1, 'osm': 'node/2941741368', 'kinds': 'shops,supermarkets,tourist_facilities', 'point': {'lon': -75.538872, 'lat': 39.115067}}, {'xid': 'N3094917116', 'name': 'Acme', 'rate': 1, 'osm': 'node/3094917116', 'kinds': 'shops,supermarkets,tourist_facilities', 'point': {'lon': -75.320229, 'lat': 39.974167}}, {'xid': 'N3102740532', 'name': "Wang's Oriental Food Store", 'rate': 1, 'osm': 'node/3102740532', 'kinds': 'shops,supermarkets,tourist_facilities', 'point': {'lon': -75.742119, 'lat': 39.684956}}, {'xid': 'N3536635068', 'name': 'ACME Market', 'rate': 1, 'osm': 'node/3536635068', 'kinds': 'shops,supermarkets,tourist_facilities', 'point': {'lon': -75.775826, 'lat': 39.667957}}, {'xid': 'N3564534724', 'name': 'Acme', 'rate': 1, 'osm': 'node/3564534724', 'kinds': 'shops,supermarkets,tourist_facilities', 'point': {'lon': -75.532639, 'lat': 39.185318}}, {'xid': 'N3669031740', 'name': 'Price Rite', 'rate': 1, 'osm': 'node/3669031740', 'kinds': 'shops,supermarkets,tourist_facilities', 'point': {'lon': -75.099503, 'lat': 39.908463}}, {'xid': 'N4119645889', 'name': 'Shoprite', 'rate': 1, 'osm': 'node/4119645889', 'kinds': 'shops,supermarkets,tourist_facilities', 'point': {'lon': -75.249268, 'lat': 39.971786}}, {'xid': 'N4327352312', 'name': 'Amish Market', 'rate': 1, 'osm': 'node/4327352312', 'kinds': 'shops,supermarkets,tourist_facilities', 'point': {'lon': -75.576622, 'lat': 39.921455}}, {'xid': 'N4349244895', 'name': 'Aldi', 'rate': 1, 'osm': 'node/4349244895', 'kinds': 'shops,supermarkets,tourist_facilities', 'point': {'lon': -75.209229, 'lat': 39.462444}}, {'xid': 'N4353988889', 'name': 'Shoprite', 'rate': 1, 'osm': 'node/4353988889', 'kinds': 'shops,supermarkets,tourist_facilities', 'point': {'lon': -75.049301, 'lat': 39.485157}}, {'xid': 'N4383898038', 'name': 'Acme', 'rate': 1, 'osm': 'node/4383898038', 'kinds': 'shops,supermarkets,tourist_facilities', 'point': {'lon': -75.708824, 'lat': 39.773727}}, {'xid': 'N4386222674', 'name': 'Acme', 'rate': 1, 'osm': 'node/4386222674', 'kinds': 'shops,supermarkets,tourist_facilities', 'point': {'lon': -75.693336, 'lat': 39.739849}}, {'xid': 'N4424370489', 'name': 'ShopRite', 'rate': 1, 'osm': 'node/4424370489', 'kinds': 'shops,supermarkets,tourist_facilities', 'point': {'lon': -75.042725, 'lat': 39.92918}}, {'xid': 'N4589238519', 'name': 'Friendly Grocery', 'rate': 1, 'osm': 'node/4589238519', 'kinds': 'shops,supermarkets,tourist_facilities', 'point': {'lon': -75.170792, 'lat': 39.929634}}, {'xid': 'N4635978537', 'name': 'Eight Brothers', 'rate': 1, 'osm': 'node/4635978537', 'kinds': 'shops,supermarkets,tourist_facilities', 'point': {'lon': -75.202705, 'lat': 39.962955}}, {'xid': 'N4684811776', 'name': 'Great Value', 'rate': 1, 'osm': 'node/4684811776', 'kinds': 'shops,supermarkets,tourist_facilities', 'point': {'lon': -75.223198, 'lat': 39.939213}}, {'xid': 'N4739109422', 'name': 'ACME', 'rate': 1, 'osm': 'node/4739109422', 'kinds': 'shops,supermarkets,tourist_facilities', 'point': {'lon': -75.652824, 'lat': 39.728714}}, {'xid': 'N4739120134', 'name': 'Save-A-Lot', 'rate': 1, 'osm': 'node/4739120134', 'kinds': 'shops,supermarkets,tourist_facilities', 'point': {'lon': -75.038132, 'lat': 39.403175}}, {'xid': 'N5251222382', 'name': "Trader Joe's", 'rate': 1, 'osm': 'node/5251222382', 'kinds': 'shops,supermarkets,tourist_facilities', 'point': {'lon': -75.541588, 'lat': 39.833809}}, {'xid': 'N5291587724', 'name': 'Aldi', 'rate': 1, 'osm': 'node/5291587724', 'kinds': 'shops,supermarkets,tourist_facilities', 'point': {'lon': -75.546181, 'lat': 39.099194}}, {'xid': 'N5318635471', 'name': 'Mi Ranchito', 'rate': 1, 'osm': 'node/5318635471', 'kinds': 'shops,supermarkets,tourist_facilities', 'point': {'lon': -75.745918, 'lat': 39.684105}}, {'xid': 'N5648653113', 'name': 'The New Village Supermarket', 'rate': 1, 'osm': 'node/5648653113', 'kinds': 'shops,supermarkets,tourist_facilities', 'point': {'lon': -75.108269, 'lat': 39.92329}}, {'xid': 'N5694876664', 'name': 'Fresh Plus', 'rate': 1, 'osm': 'node/5694876664', 'kinds': 'shops,supermarkets,tourist_facilities', 'point': {'lon': -75.360901, 'lat': 39.850792}}, {'xid': 'N5808226411', 'name': "Pagano's Italian Specialties", 'rate': 1, 'osm': 'node/5808226411', 'kinds': 'shops,supermarkets,tourist_facilities', 'point': {'lon': -75.319557, 'lat': 39.957661}}, {'xid': 'N5955006785', 'name': 'Acme', 'rate': 1, 'osm': 'node/5955006785', 'kinds': 'shops,supermarkets,tourist_facilities', 'point': {'lon': -75.158775, 'lat': 39.942932}}, {'xid': 'N6240921140', 'name': 'Riverwards', 'rate': 1, 'osm': 'node/6240921140', 'kinds': 'shops,supermarkets,tourist_facilities', 'point': {'lon': -75.129913, 'lat': 39.978184}}, {'xid': 'N6242919985', 'name': 'Target', 'rate': 1, 'osm': 'node/6242919985', 'kinds': 'shops,supermarkets,tourist_facilities', 'point': {'lon': -75.172142, 'lat': 39.951782}}, {'xid': 'N6250560654', 'name': 'Giant Food Stores', 'rate': 1, 'osm': 'node/6250560654', 'kinds': 'shops,supermarkets,tourist_facilities', 'point': {'lon': -75.731781, 'lat': 39.840126}}, {'xid': 'N6355486913', 'name': 'Chefs’ Haven', 'rate': 1, 'osm': 'node/6355486913', 'kinds': 'shops,supermarkets,tourist_facilities', 'point': {'lon': -75.6978, 'lat': 39.788136}}, {'xid': 'N6444222001', 'name': 'Nuevo Mexico', 'rate': 1, 'osm': 'node/6444222001', 'kinds': 'shops,supermarkets,tourist_facilities', 'point': {'lon': -75.611137, 'lat': 39.959286}}, {'xid': 'N6448748205', 'name': 'La Simpatica', 'rate': 1, 'osm': 'node/6448748205', 'kinds': 'shops,supermarkets,tourist_facilities', 'point': {'lon': -75.641457, 'lat': 39.732834}}, {'xid': 'N6459806506', 'name': 'Brown Bag', 'rate': 1, 'osm': 'node/6459806506', 'kinds': 'shops,supermarkets,tourist_facilities', 'point': {'lon': -75.545479, 'lat': 39.743607}}, {'xid': 'N6470694581', 'name': 'Food Lion', 'rate': 1, 'osm': 'node/6470694581', 'kinds': 'shops,supermarkets,tourist_facilities', 'point': {'lon': -75.544289, 'lat': 39.156654}}, {'xid': 'N6477934025', 'name': 'La Costena Market', 'rate': 1, 'osm': 'node/6477934025', 'kinds': 'shops,supermarkets,tourist_facilities', 'point': {'lon': -75.716049, 'lat': 39.449402}}, {'xid': 'N6477995109', 'name': 'Middletown African Marker', 'rate': 1, 'osm': 'node/6477995109', 'kinds': 'shops,supermarkets,tourist_facilities', 'point': {'lon': -75.717491, 'lat': 39.459332}}, {'xid': 'N6510931358', 'name': 'Redner’s Markets', 'rate': 1, 'osm': 'node/6510931358', 'kinds': 'shops,supermarkets,tourist_facilities', 'point': {'lon': -75.553467, 'lat': 39.160469}}, {'xid': 'N6558075400', 'name': 'Chestnut Food Market', 'rate': 1, 'osm': 'node/6558075400', 'kinds': 'shops,supermarkets,tourist_facilities', 'point': {'lon': -75.154427, 'lat': 39.949516}}, {'xid': 'N6615223796', 'name': 'Acme', 'rate': 1, 'osm': 'node/6615223796', 'kinds': 'shops,supermarkets,tourist_facilities', 'point': {'lon': -75.712074, 'lat': 39.606636}}, {'xid': 'N6634083729', 'name': 'Aldi', 'rate': 1, 'osm': 'node/6634083729', 'kinds': 'shops,supermarkets,tourist_facilities', 'point': {'lon': -75.186813, 'lat': 39.97588}}, {'xid': 'N6654332521', 'name': 'Acme', 'rate': 1, 'osm': 'node/6654332521', 'kinds': 'shops,supermarkets,tourist_facilities', 'point': {'lon': -75.451515, 'lat': 39.851589}}, {'xid': 'N6688377083', 'name': 'ShopRite', 'rate': 1, 'osm': 'node/6688377083', 'kinds': 'shops,supermarkets,tourist_facilities', 'point': {'lon': -75.186272, 'lat': 39.919628}}, {'xid': 'W71409014', 'name': 'Giant', 'rate': 1, 'osm': 'way/71409014', 'kinds': 'shops,supermarkets,tourist_facilities', 'point': {'lon': -75.655121, 'lat': 39.63356}}, {'xid': 'W253715364', 'name': 'Walmart Supercenter', 'rate': 1, 'osm': 'way/253715364', 'kinds': 'shops,supermarkets,tourist_facilities', 'point': {'lon': -75.035721, 'lat': 39.729572}}, {'xid': 'W264201936', 'name': 'Walmart Supercenter', 'rate': 1, 'osm': 'way/264201936', 'kinds': 'shops,supermarkets,tourist_facilities', 'point': {'lon': -75.737877, 'lat': 39.446331}}, {'xid': 'W345167226', 'name': 'Heng Fa Supermarket', 'rate': 1, 'osm': 'way/345167226', 'kinds': 'shops,supermarkets,tourist_facilities', 'point': {'lon': -75.156296, 'lat': 39.95435}}, {'xid': 'W131637091', 'name': 'Safeway', 'rate': 1, 'osm': 'way/131637091', 'kinds': 'shops,supermarkets,tourist_facilities', 'point': {'lon': -75.499069, 'lat': 39.825947}}, {'xid': 'N763455405', 'name': "Redner's", 'rate': 1, 'osm': 'node/763455405', 'kinds': 'shops,supermarkets,tourist_facilities', 'point': {'lon': -75.825935, 'lat': 39.589447}}, {'xid': 'N2581158950', 'name': 'Rittenhouse Market', 'rate': 1, 'osm': 'node/2581158950', 'kinds': 'shops,supermarkets,tourist_facilities', 'point': {'lon': -75.170883, 'lat': 39.947842}}, {'xid': 'N5315596656', 'name': 'Walmart Supercenter', 'rate': 1, 'osm': 'node/5315596656', 'kinds': 'shops,supermarkets,tourist_facilities', 'point': {'lon': -75.356285, 'lat': 39.938992}}, {'xid': 'N5315597923', 'name': 'Walmart Supercenter', 'rate': 1, 'osm': 'node/5315597923', 'kinds': 'shops,supermarkets,tourist_facilities', 'point': {'lon': -75.54615, 'lat': 39.102741}}, {'xid': 'N5534110665', 'name': 'Diamond Green Deli', 'rate': 1, 'osm': 'node/5534110665', 'kinds': 'shops,supermarkets,tourist_facilities', 'point': {'lon': -75.150352, 'lat': 39.981987}}, {'xid': 'N5583399933', 'name': 'ACME Markets', 'rate': 1, 'osm': 'node/5583399933', 'kinds': 'shops,supermarkets,tourist_facilities', 'point': {'lon': -75.500504, 'lat': 39.823769}}, {'xid': 'N6329902159', 'name': 'The Fresh Market', 'rate': 1, 'osm': 'node/6329902159', 'kinds': 'shops,supermarkets,tourist_facilities', 'point': {'lon': -75.532326, 'lat': 39.885868}}, {'xid': 'W51531441', 'name': 'Walmart', 'rate': 1, 'osm': 'way/51531441', 'kinds': 'shops,supermarkets,tourist_facilities', 'point': {'lon': -75.044586, 'lat': 39.938583}}, {'xid': 'W256469347', 'name': 'Acme', 'rate': 1, 'osm': 'way/256469347', 'kinds': 'shops,supermarkets,tourist_facilities', 'point': {'lon': -75.826073, 'lat': 39.601711}}, {'xid': 'W256725631', 'name': 'Acme', 'rate': 1, 'osm': 'way/256725631', 'kinds': 'shops,supermarkets,tourist_facilities', 'point': {'lon': -75.161423, 'lat': 39.827019}}, {'xid': 'W292021269', 'name': 'Giant Food Stores', 'rate': 1, 'osm': 'way/292021269', 'kinds': 'shops,supermarkets,tourist_facilities', 'point': {'lon': -75.683044, 'lat': 39.859879}}, {'xid': 'W335519760', 'name': 'First Oriental Market', 'rate': 1, 'osm': 'way/335519760', 'kinds': 'shops,supermarkets,tourist_facilities', 'point': {'lon': -75.153702, 'lat': 39.934029}}, {'xid': 'W391475136', 'name': 'Wegmans', 'rate': 1, 'osm': 'way/391475136', 'kinds': 'shops,supermarkets,tourist_facilities', 'point': {'lon': -75.541458, 'lat': 39.875378}}, {'xid': 'W637021159', 'name': 'Walmart Supercenter', 'rate': 1, 'osm': 'way/637021159', 'kinds': 'shops,supermarkets,tourist_facilities', 'point': {'lon': -75.979103, 'lat': 39.796883}}, {'xid': 'W71493407', 'name': 'Acme', 'rate': 1, 'osm': 'way/71493407', 'kinds': 'shops,supermarkets,tourist_facilities', 'point': {'lon': -75.545143, 'lat': 39.787769}}, {'xid': 'W127091134', 'name': 'Mariposa Food Co-Op', 'rate': 1, 'osm': 'way/127091134', 'kinds': 'shops,supermarkets,tourist_facilities', 'point': {'lon': -75.220627, 'lat': 39.948051}}, {'xid': 'W153239233', 'name': 'Walmart Supercenter', 'rate': 1, 'osm': 'way/153239233', 'kinds': 'shops,supermarkets,tourist_facilities', 'point': {'lon': -75.79287, 'lat': 39.603123}}, {'xid': 'W204683503', 'name': 'ACME Markets', 'rate': 1, 'osm': 'way/204683503', 'kinds': 'shops,supermarkets,tourist_facilities', 'point': {'lon': -75.52774, 'lat': 39.884251}}, {'xid': 'W226298578', 'name': 'Walmart Supercenter', 'rate': 1, 'osm': 'way/226298578', 'kinds': 'shops,supermarkets,tourist_facilities', 'point': {'lon': -75.141457, 'lat': 39.926537}}, {'xid': 'W266656044', 'name': 'Save A Lot', 'rate': 1, 'osm': 'way/266656044', 'kinds': 'shops,supermarkets,tourist_facilities', 'point': {'lon': -75.067726, 'lat': 39.94952}}, {'xid': 'W335293069', 'name': 'South Square Market', 'rate': 1, 'osm': 'way/335293069', 'kinds': 'shops,supermarkets,tourist_facilities', 'point': {'lon': -75.179428, 'lat': 39.945675}}, {'xid': 'W345057788', 'name': 'Passyunk Market', 'rate': 1, 'osm': 'way/345057788', 'kinds': 'shops,supermarkets,tourist_facilities', 'point': {'lon': -75.161308, 'lat': 39.931461}}, {'xid': 'W427908363', 'name': 'El Paisano Supermarket', 'rate': 1, 'osm': 'way/427908363', 'kinds': 'shops,supermarkets,tourist_facilities', 'point': {'lon': -75.160805, 'lat': 39.932205}}, {'xid': 'W439049388', 'name': "Di's Market", 'rate': 1, 'osm': 'way/439049388', 'kinds': 'shops,supermarkets,tourist_facilities', 'point': {'lon': -75.171814, 'lat': 39.92952}}, {'xid': 'W443844204', 'name': "MOM'S Organic Market", 'rate': 1, 'osm': 'way/443844204', 'kinds': 'shops,supermarkets,tourist_facilities', 'point': {'lon': -75.008034, 'lat': 39.914528}}, {'xid': 'W444797407', 'name': 'Aldi', 'rate': 1, 'osm': 'way/444797407', 'kinds': 'shops,supermarkets,tourist_facilities', 'point': {'lon': -75.148598, 'lat': 39.91497}}, {'xid': 'W481136637', 'name': 'ALDI', 'rate': 1, 'osm': 'way/481136637', 'kinds': 'shops,supermarkets,tourist_facilities', 'point': {'lon': -75.041245, 'lat': 39.448326}}, {'xid': 'W486672086', 'name': 'West Philadelphia Achievemnet Charter School', 'rate': 1, 'osm': 'way/486672086', 'kinds': 'shops,supermarkets,tourist_facilities', 'point': {'lon': -75.254173, 'lat': 39.970299}}, {'xid': 'W494268702', 'name': 'ALDI', 'rate': 1, 'osm': 'way/494268702', 'kinds': 'shops,supermarkets,tourist_facilities', 'point': {'lon': -75.015663, 'lat': 39.840988}}, {'xid': 'W550378254', 'name': 'Walmart', 'rate': 1, 'osm': 'way/550378254', 'kinds': 'shops,supermarkets,tourist_facilities', 'point': {'lon': -75.61853, 'lat': 39.733868}}, {'xid': 'W635584377', 'name': 'Walmart', 'rate': 1, 'osm': 'way/635584377', 'kinds': 'shops,supermarkets,tourist_facilities', 'point': {'lon': -75.504799, 'lat': 39.612213}}, {'xid': 'W635965524', 'name': 'Walmart', 'rate': 1, 'osm': 'way/635965524', 'kinds': 'shops,supermarkets,tourist_facilities', 'point': {'lon': -75.03569, 'lat': 39.425163}}, {'xid': 'W641186478', 'name': 'Walmart Supercenter', 'rate': 1, 'osm': 'way/641186478', 'kinds': 'shops,supermarkets,tourist_facilities', 'point': {'lon': -75.93351, 'lat': 39.979801}}, {'xid': 'W641958283', 'name': 'Walmart', 'rate': 1, 'osm': 'way/641958283', 'kinds': 'shops,supermarkets,tourist_facilities', 'point': {'lon': -75.292091, 'lat': 39.907162}}, {'xid': 'W641960146', 'name': 'Walmart Supercenter', 'rate': 1, 'osm': 'way/641960146', 'kinds': 'shops,supermarkets,tourist_facilities', 'point': {'lon': -75.091805, 'lat': 39.998981}}, {'xid': 'W644948886', 'name': 'Acme Markets', 'rate': 1, 'osm': 'way/644948886', 'kinds': 'shops,supermarkets,tourist_facilities', 'point': {'lon': -75.775703, 'lat': 39.668041}}, {'xid': 'N440121908', 'name': 'C-Town', 'rate': 1, 'osm': 'node/440121908', 'kinds': 'shops,supermarkets,tourist_facilities', 'point': {'lon': -75.232178, 'lat': 39.427444}}, {'xid': 'N571681012', 'name': 'Harvest Market Natural Foods', 'rate': 1, 'osm': 'node/571681012', 'kinds': 'shops,supermarkets,tourist_facilities', 'point': {'lon': -75.695534, 'lat': 39.789085}}, {'xid': 'N785971050', 'name': 'Swarthmore Co-op', 'rate': 1, 'osm': 'node/785971050', 'kinds': 'shops,supermarkets,tourist_facilities', 'point': {'lon': -75.348869, 'lat': 39.902233}}, {'xid': 'N1224803799', 'name': 'Verchios Market', 'rate': 1, 'osm': 'node/1224803799', 'kinds': 'shops,supermarkets,tourist_facilities', 'point': {'lon': -75.04966, 'lat': 39.724094}}, {'xid': 'N1325776461', 'name': 'Acme', 'rate': 1, 'osm': 'node/1325776461', 'kinds': 'shops,supermarkets,tourist_facilities', 'point': {'lon': -75.30687, 'lat': 39.924419}}, {'xid': 'N1325781366', 'name': 'Giant', 'rate': 1, 'osm': 'node/1325781366', 'kinds': 'shops,supermarkets,tourist_facilities', 'point': {'lon': -75.264168, 'lat': 39.939098}}, {'xid': 'N1595169974', 'name': 'Giant', 'rate': 1, 'osm': 'node/1595169974', 'kinds': 'shops,supermarkets,tourist_facilities', 'point': {'lon': -75.374985, 'lat': 39.981571}}, {'xid': 'N1595219522', 'name': 'Acme Market', 'rate': 1, 'osm': 'node/1595219522', 'kinds': 'shops,supermarkets,tourist_facilities', 'point': {'lon': -75.397911, 'lat': 39.985661}}, {'xid': 'N1769678458', 'name': 'Fine Fare', 'rate': 1, 'osm': 'node/1769678458', 'kinds': 'shops,supermarkets,tourist_facilities', 'point': {'lon': -75.132133, 'lat': 39.991417}}, {'xid': 'N2014324526', 'name': "cousin's", 'rate': 1, 'osm': 'node/2014324526', 'kinds': 'shops,supermarkets,tourist_facilities', 'point': {'lon': -75.144073, 'lat': 39.980873}}, {'xid': 'N2100715655', 'name': 'Save-A-Lot', 'rate': 1, 'osm': 'node/2100715655', 'kinds': 'shops,supermarkets,tourist_facilities', 'point': {'lon': -75.274445, 'lat': 39.954521}}, {'xid': 'N2689152149', 'name': 'Heritages Dairy Store', 'rate': 1, 'osm': 'node/2689152149', 'kinds': 'shops,supermarkets,tourist_facilities', 'point': {'lon': -75.355812, 'lat': 39.75827}}, {'xid': 'N2726054666', 'name': 'Melo Food Market', 'rate': 1, 'osm': 'node/2726054666', 'kinds': 'shops,supermarkets,tourist_facilities', 'point': {'lon': -75.063156, 'lat': 39.948761}}, {'xid': 'N2785492009', 'name': 'The Fresh Grocer', 'rate': 1, 'osm': 'node/2785492009', 'kinds': 'shops,supermarkets,tourist_facilities', 'point': {'lon': -75.234001, 'lat': 39.960594}}, {'xid': 'N2818631857', 'name': 'Thriftway', 'rate': 1, 'osm': 'node/2818631857', 'kinds': 'shops,supermarkets,tourist_facilities', 'point': {'lon': -75.062317, 'lat': 39.900711}}, {'xid': 'N2886496735', 'name': 'Giant Foods', 'rate': 1, 'osm': 'node/2886496735', 'kinds': 'shops,supermarkets,tourist_facilities', 'point': {'lon': -75.561981, 'lat': 39.902966}}, {'xid': 'N3669045475', 'name': 'Save a Lot', 'rate': 1, 'osm': 'node/3669045475', 'kinds': 'shops,supermarkets,tourist_facilities', 'point': {'lon': -75.097298, 'lat': 39.909748}}, {'xid': 'N4003087660', 'name': 'ACME', 'rate': 1, 'osm': 'node/4003087660', 'kinds': 'shops,supermarkets,tourist_facilities', 'point': {'lon': -75.003769, 'lat': 39.955494}}, {'xid': 'N4327352730', 'name': 'Walgreens', 'rate': 1, 'osm': 'node/4327352730', 'kinds': 'shops,supermarkets,tourist_facilities', 'point': {'lon': -75.574806, 'lat': 39.919518}}, {'xid': 'N4569064297', 'name': "Zingo's", 'rate': 1, 'osm': 'node/4569064297', 'kinds': 'shops,supermarkets,tourist_facilities', 'point': {'lon': -75.709679, 'lat': 39.718742}}, {'xid': 'N4806462799', 'name': "Lee's Foodway", 'rate': 1, 'osm': 'node/4806462799', 'kinds': 'shops,supermarkets,tourist_facilities', 'point': {'lon': -75.159195, 'lat': 39.978775}}, {'xid': 'N5534955472', 'name': 'Grocery Outlet', 'rate': 1, 'osm': 'node/5534955472', 'kinds': 'shops,supermarkets,tourist_facilities', 'point': {'lon': -75.16011, 'lat': 39.983585}}, {'xid': 'N5678006679', 'name': 'Compare Foods', 'rate': 1, 'osm': 'node/5678006679', 'kinds': 'shops,supermarkets,tourist_facilities', 'point': {'lon': -75.080383, 'lat': 39.952599}}, {'xid': 'N5718812916', 'name': "Sam's Super Market", 'rate': 1, 'osm': 'node/5718812916', 'kinds': 'shops,supermarkets,tourist_facilities', 'point': {'lon': -75.130424, 'lat': 39.993881}}, {'xid': 'N5757075088', 'name': 'ShopRite', 'rate': 1, 'osm': 'node/5757075088', 'kinds': 'shops,supermarkets,tourist_facilities', 'point': {'lon': -75.037643, 'lat': 39.81823}}, {'xid': 'N5772023026', 'name': 'Weavers Farm Market', 'rate': 1, 'osm': 'node/5772023026', 'kinds': 'shops,supermarkets,tourist_facilities', 'point': {'lon': -75.100166, 'lat': 39.528614}}, {'xid': 'N5884769090', 'name': '(Hispanic) Supermarket', 'rate': 1, 'osm': 'node/5884769090', 'kinds': 'shops,supermarkets,tourist_facilities', 'point': {'lon': -75.157608, 'lat': 39.961956}}, {'xid': 'N5936270387', 'name': 'Giant', 'rate': 1, 'osm': 'node/5936270387', 'kinds': 'shops,supermarkets,tourist_facilities', 'point': {'lon': -75.567703, 'lat': 39.998917}}, {'xid': 'N6294779069', 'name': 'Food Lion', 'rate': 1, 'osm': 'node/6294779069', 'kinds': 'shops,supermarkets,tourist_facilities', 'point': {'lon': -75.950012, 'lat': 39.605923}}, {'xid': 'N6373325750', 'name': 'Giant Food', 'rate': 1, 'osm': 'node/6373325750', 'kinds': 'shops,supermarkets,tourist_facilities', 'point': {'lon': -75.547409, 'lat': 39.81374}}, {'xid': 'N6386996550', 'name': 'Giant Food Stores', 'rate': 1, 'osm': 'node/6386996550', 'kinds': 'shops,supermarkets,tourist_facilities', 'point': {'lon': -75.754784, 'lat': 39.996422}}, {'xid': 'N6448697259', 'name': 'Gigante', 'rate': 1, 'osm': 'node/6448697259', 'kinds': 'shops,supermarkets,tourist_facilities', 'point': {'lon': -75.632492, 'lat': 39.736721}}, {'xid': 'N6448748265', 'name': 'ALDI', 'rate': 1, 'osm': 'node/6448748265', 'kinds': 'shops,supermarkets,tourist_facilities', 'point': {'lon': -75.647766, 'lat': 39.727802}}, {'xid': 'N6477995149', 'name': 'Dutch Country Farmers Market', 'rate': 1, 'osm': 'node/6477995149', 'kinds': 'shops,supermarkets,tourist_facilities', 'point': {'lon': -75.717484, 'lat': 39.458454}}, {'xid': 'N6515672896', 'name': 'Asia Supermarket', 'rate': 1, 'osm': 'node/6515672896', 'kinds': 'shops,supermarkets,tourist_facilities', 'point': {'lon': -75.709976, 'lat': 39.696941}}, {'xid': 'N6556392903', 'name': 'No. 1 Supermarket', 'rate': 1, 'osm': 'node/6556392903', 'kinds': 'shops,supermarkets,tourist_facilities', 'point': {'lon': -75.155891, 'lat': 39.95364}}, {'xid': 'N6556417046', 'name': 'New World Laundromat & Food Market', 'rate': 1, 'osm': 'node/6556417046', 'kinds': 'shops,supermarkets,tourist_facilities', 'point': {'lon': -75.156204, 'lat': 39.954716}}, {'xid': 'N6666338233', 'name': 'The Fresh Grocer', 'rate': 1, 'osm': 'node/6666338233', 'kinds': 'shops,supermarkets,tourist_facilities', 'point': {'lon': -75.193336, 'lat': 39.94022}}, {'xid': 'N6677737939', 'name': 'GIANT Heirloom Market', 'rate': 1, 'osm': 'node/6677737939', 'kinds': 'shops,supermarkets,tourist_facilities', 'point': {'lon': -75.19191, 'lat': 39.954823}}, {'xid': 'N6680703345', 'name': 'GIANT Heirloom Market', 'rate': 1, 'osm': 'node/6680703345', 'kinds': 'shops,supermarkets,tourist_facilities', 'point': {'lon': -75.180565, 'lat': 39.944828}}, {'xid': 'N6688453502', 'name': 'Shoprite-Supermarket', 'rate': 1, 'osm': 'node/6688453502', 'kinds': 'shops,supermarkets,tourist_facilities', 'point': {'lon': -75.154716, 'lat': 39.913998}}, {'xid': 'N5229243705', 'name': 'Whole Foods Market', 'rate': 1, 'osm': 'node/5229243705', 'kinds': 'restaurants,shops,foods,supermarkets,tourist_facilities', 'point': {'lon': -75.174362, 'lat': 39.962921}}, {'xid': 'W65726716', 'name': 'Safeway 4030', 'rate': 1, 'osm': 'way/65726716', 'kinds': 'shops,supermarkets,tourist_facilities', 'point': {'lon': -75.749039, 'lat': 39.600368}}, {'xid': 'W74973040', 'name': 'ACME Market', 'rate': 1, 'osm': 'way/74973040', 'kinds': 'shops,supermarkets,tourist_facilities', 'point': {'lon': -75.162384, 'lat': 39.932251}}, {'xid': 'W78923999', 'name': 'Walmart Supercenter', 'rate': 1, 'osm': 'way/78923999', 'kinds': 'shops,supermarkets,tourist_facilities', 'point': {'lon': -75.04744, 'lat': 39.489613}}, {'xid': 'W131281721', 'name': 'Giant', 'rate': 1, 'osm': 'way/131281721', 'kinds': 'shops,supermarkets,tourist_facilities', 'point': {'lon': -75.341965, 'lat': 39.915646}}, {'xid': 'W131638640', 'name': 'Safeway', 'rate': 1, 'osm': 'way/131638640', 'kinds': 'shops,supermarkets,tourist_facilities', 'point': {'lon': -75.508812, 'lat': 39.158951}}, {'xid': 'W135715526', 'name': 'Giant', 'rate': 1, 'osm': 'way/135715526', 'kinds': 'shops,supermarkets,tourist_facilities', 'point': {'lon': -75.689003, 'lat': 39.454689}}, {'xid': 'W153216787', 'name': 'Aldi', 'rate': 1, 'osm': 'way/153216787', 'kinds': 'shops,supermarkets,tourist_facilities', 'point': {'lon': -75.78643, 'lat': 39.605453}}, {'xid': 'W162799445', 'name': 'The Richmond Shops IGA', 'rate': 1, 'osm': 'way/162799445', 'kinds': 'shops,supermarkets,tourist_facilities', 'point': {'lon': -75.119576, 'lat': 39.975338}}, {'xid': 'W175529350', 'name': 'Walmart Supercenter', 'rate': 1, 'osm': 'way/175529350', 'kinds': 'shops,supermarkets,tourist_facilities', 'point': {'lon': -75.690063, 'lat': 39.861179}}, {'xid': 'W191636235', 'name': 'Supremo Foodmarket', 'rate': 1, 'osm': 'way/191636235', 'kinds': 'shops,supermarkets,tourist_facilities', 'point': {'lon': -75.209152, 'lat': 39.955242}}, {'xid': 'W205413085', 'name': 'Fresh Grocer', 'rate': 1, 'osm': 'way/205413085', 'kinds': 'shops,supermarkets,tourist_facilities', 'point': {'lon': -75.560097, 'lat': 39.742237}}, {'xid': 'W213271524', 'name': 'Shop Rite', 'rate': 1, 'osm': 'way/213271524', 'kinds': 'shops,supermarkets,tourist_facilities', 'point': {'lon': -75.09166, 'lat': 39.994587}}, {'xid': 'W246465605', 'name': 'Walmart Supercenter', 'rate': 1, 'osm': 'way/246465605', 'kinds': 'shops,supermarkets,tourist_facilities', 'point': {'lon': -75.024277, 'lat': 39.854767}}, {'xid': 'W266475121', 'name': 'Walmart', 'rate': 1, 'osm': 'way/266475121', 'kinds': 'shops,supermarkets,tourist_facilities', 'point': {'lon': -75.208946, 'lat': 39.466602}}, {'xid': 'W298695614', 'name': 'Morel Grocery', 'rate': 1, 'osm': 'way/298695614', 'kinds': 'shops,supermarkets,tourist_facilities', 'point': {'lon': -75.168724, 'lat': 39.930439}}, {'xid': 'W305625704', 'name': 'Newark Farmers Market', 'rate': 1, 'osm': 'way/305625704', 'kinds': 'shops,supermarkets,tourist_facilities', 'point': {'lon': -75.688217, 'lat': 39.705795}}, {'xid': 'W332741684', 'name': 'Walmart Supercenter', 'rate': 1, 'osm': 'way/332741684', 'kinds': 'shops,supermarkets,tourist_facilities', 'point': {'lon': -75.570381, 'lat': 39.21656}}, {'xid': 'W333012814', 'name': 'Acme', 'rate': 1, 'osm': 'way/333012814', 'kinds': 'shops,supermarkets,tourist_facilities', 'point': {'lon': -75.150017, 'lat': 39.944332}}, {'xid': 'W337305369', 'name': 'ShopRite', 'rate': 1, 'osm': 'way/337305369', 'kinds': 'shops,supermarkets,tourist_facilities', 'point': {'lon': -75.340073, 'lat': 39.864914}}, {'xid': 'W337305366', 'name': 'Walmart', 'rate': 1, 'osm': 'way/337305366', 'kinds': 'shops,supermarkets,tourist_facilities', 'point': {'lon': -75.340675, 'lat': 39.863693}}, {'xid': 'W340038792', 'name': 'Sprouts Farmers Market', 'rate': 1, 'osm': 'way/340038792', 'kinds': 'shops,supermarkets,tourist_facilities', 'point': {'lon': -75.167747, 'lat': 39.938976}}, {'xid': 'W345044244', 'name': 'Hung Vuong Supermarket', 'rate': 1, 'osm': 'way/345044244', 'kinds': 'shops,supermarkets,tourist_facilities', 'point': {'lon': -75.162712, 'lat': 39.93652}}, {'xid': 'W398631750', 'name': 'Aldi', 'rate': 1, 'osm': 'way/398631750', 'kinds': 'shops,supermarkets,tourist_facilities', 'point': {'lon': -75.270233, 'lat': 39.978745}}, {'xid': 'W408364003', 'name': 'Dollar General', 'rate': 1, 'osm': 'way/408364003', 'kinds': 'shops,supermarkets,tourist_facilities', 'point': {'lon': -75.266487, 'lat': 39.958317}}, {'xid': 'W441278096', 'name': 'Save A Lot', 'rate': 1, 'osm': 'way/441278096', 'kinds': 'shops,supermarkets,tourist_facilities', 'point': {'lon': -75.18502, 'lat': 39.919117}}, {'xid': 'W484645524', 'name': 'Shoprite', 'rate': 1, 'osm': 'way/484645524', 'kinds': 'shops,supermarkets,tourist_facilities', 'point': {'lon': -75.395966, 'lat': 39.880173}}, {'xid': 'W555769343', 'name': "Trader Joe's", 'rate': 1, 'osm': 'way/555769343', 'kinds': 'shops,supermarkets,tourist_facilities', 'point': {'lon': -75.388878, 'lat': 39.917572}}, {'xid': 'W556162141', 'name': 'Giant', 'rate': 1, 'osm': 'way/556162141', 'kinds': 'shops,supermarkets,tourist_facilities', 'point': {'lon': -75.351166, 'lat': 39.934383}}, {'xid': 'W572184800', 'name': 'Save-A-Lot', 'rate': 1, 'osm': 'way/572184800', 'kinds': 'shops,supermarkets,tourist_facilities', 'point': {'lon': -75.265366, 'lat': 39.941891}}, {'xid': 'W640352994', 'name': 'Food Lion', 'rate': 1, 'osm': 'way/640352994', 'kinds': 'shops,supermarkets,tourist_facilities', 'point': {'lon': -75.861145, 'lat': 39.264984}}, {'xid': 'W641900563', 'name': 'Walmart', 'rate': 1, 'osm': 'way/641900563', 'kinds': 'shops,supermarkets,tourist_facilities', 'point': {'lon': -75.449005, 'lat': 39.852161}}, {'xid': 'W651744773', 'name': 'Acme', 'rate': 1, 'osm': 'way/651744773', 'kinds': 'shops,supermarkets,tourist_facilities', 'point': {'lon': -75.610596, 'lat': 39.306202}}, {'xid': 'W680641496', 'name': 'Gigante International Food Market', 'rate': 1, 'osm': 'way/680641496', 'kinds': 'shops,supermarkets,tourist_facilities', 'point': {'lon': -75.768394, 'lat': 39.817276}}, {'xid': 'W103092913', 'name': 'Giant Food Stores', 'rate': 1, 'osm': 'way/103092913', 'kinds': 'shops,supermarkets,tourist_facilities', 'point': {'lon': -75.525604, 'lat': 39.965275}}, {'xid': 'W28689597', 'name': 'Walmart', 'rate': 1, 'osm': 'way/28689597', 'kinds': 'shops,supermarkets,tourist_facilities', 'point': {'lon': -75.08416, 'lat': 39.892071}}, {'xid': 'W32120284', 'name': 'The Fresh Grocer', 'rate': 1, 'osm': 'way/32120284', 'kinds': 'shops,supermarkets,tourist_facilities', 'point': {'lon': -75.20295, 'lat': 39.954559}}, {'xid': 'W75959003', 'name': 'Wawa', 'rate': 1, 'osm': 'way/75959003', 'kinds': 'shops,supermarkets,tourist_facilities', 'point': {'lon': -75.391129, 'lat': 39.934376}}, {'xid': 'W131172572', 'name': "Genuardi's 0648", 'rate': 1, 'osm': 'way/131172572', 'kinds': 'shops,supermarkets,tourist_facilities', 'point': {'lon': -75.567688, 'lat': 39.998905}}, {'xid': 'W132884669', 'name': 'The Fresh Grocer', 'rate': 1, 'osm': 'way/132884669', 'kinds': 'shops,supermarkets,tourist_facilities', 'point': {'lon': -75.157654, 'lat': 39.976772}}, {'xid': 'N6366157712', 'name': 'Save-A-Lot', 'rate': 1, 'osm': 'node/6366157712', 'kinds': 'shops,supermarkets,tourist_facilities', 'point': {'lon': -75.568672, 'lat': 39.743946}}, {'xid': 'N1590291190', 'name': 'Walmart Supercenter', 'rate': 1, 'osm': 'node/1590291190', 'kinds': 'shops,supermarkets,tourist_facilities', 'point': {'lon': -75.091469, 'lat': 39.844135}}, {'xid': 'N6366158396', 'name': 'Save-A-Lot', 'rate': 1, 'osm': 'node/6366158396', 'kinds': 'shops,supermarkets,tourist_facilities', 'point': {'lon': -75.568672, 'lat': 39.743946}}, {'xid': 'W437654712', 'name': '', 'rate': 0, 'osm': 'way/437654712', 'kinds': 'shops,supermarkets,tourist_facilities', 'point': {'lon': -75.05867, 'lat': 39.907497}}, {'xid': 'N4353970695', 'name': '', 'rate': 0, 'osm': 'node/4353970695', 'kinds': 'shops,supermarkets,tourist_facilities', 'point': {'lon': -75.089508, 'lat': 39.489372}}, {'xid': 'W32304346', 'name': '', 'rate': 0, 'osm': 'way/32304346', 'kinds': 'shops,supermarkets,tourist_facilities', 'point': {'lon': -75.089409, 'lat': 39.892868}}, {'xid': 'W486672084', 'name': '', 'rate': 0, 'osm': 'way/486672084', 'kinds': 'shops,supermarkets,tourist_facilities', 'point': {'lon': -75.254173, 'lat': 39.97163}}, {'xid': 'N4348840200', 'name': '', 'rate': 0, 'osm': 'node/4348840200', 'kinds': 'shops,supermarkets,tourist_facilities', 'point': {'lon': -75.233162, 'lat': 39.428875}}, {'xid': 'W37722413', 'name': '', 'rate': 0, 'osm': 'way/37722413', 'kinds': 'shops,supermarkets,tourist_facilities', 'point': {'lon': -75.113403, 'lat': 39.715084}}]