[{"xid":"N3816647213","name":"Super Saver Five Points","rate":1,"osm":"node/3816647213","kinds":"shops,supermarkets,tourist_facilities","point":{"lon":-98.35746,"lat":40.939137}},{"xid":"N3816695720","name":"Conoco 1-Stop","rate":1,"osm":"node/3816695720","kinds":"shops,supermarkets,tourist_facilities","point":{"lon":-98.361252,"lat":40.915657}},{"xid":"N3818179289","name":"Walmart Supercenter","rate":1,"osm":"node/3818179289","kinds":"shops,supermarkets,tourist_facilities","point":{"lon":-98.336151,"lat":40.885365}},{"xid":"N3827980424","name":"Mason's Supermarket","rate":1,"osm":"node/3827980424","kinds":"shops,supermarkets,tourist_facilities","point":{"lon":-98.951447,"lat":40.501949}},{"xid":"N5305047273","name":"Vientiane Oriental Market","rate":1,"osm":"node/5305047273","kinds":"shops,supermarkets,tourist_facilities","point":{"lon":-98.343452,"lat":40.927505}},{"xid":"N5521262960","name":"Hy-Vee","rate":1,"osm":"node/5521262960","kinds":"shops,supermarkets,tourist_facilities","point":{"lon":-98.379524,"lat":40.917809}},{"xid":"N5631542136","name":"Casey's General Store","rate":1,"osm":"node/5631542136","kinds":"shops,supermarkets,tourist_facilities","point":{"lon":-98.507065,"lat":40.596607}},{"xid":"W549182367","name":"African Grocery Store","rate":1,"osm":"way/549182367","kinds":"shops,supermarkets,tourist_facilities","point":{"lon":-98.346291,"lat":40.926273}},{"xid":"W140486224","name":"Walmart Supercenter","rate":1,"osm":"way/140486224","kinds":"shops,supermarkets,tourist_facilities","point":{"lon":-98.385811,"lat":40.624245}},{"xid":"W549182347","name":"La Flor","rate":1,"osm":"way/549182347","kinds":"shops,supermarkets,tourist_facilities","point":{"lon":-98.343605,"lat":40.928082}},{"xid":"W632330523","name":"Walmart Supercenter","rate":1,"osm":"way/632330523","kinds":"shops,supermarkets,tourist_facilities","point":{"lon":-98.387032,"lat":40.942768}},{"xid":"N1323872947","name":"Super Saver","rate":1,"osm":"node/1323872947","kinds":"shops,supermarkets,tourist_facilities","point":{"lon":-98.355659,"lat":40.918835}},{"xid":"W575378010","name":"","rate":0,"osm":"way/575378010","kinds":"shops,supermarkets,tourist_facilities","point":{"lon":-98.379555,"lat":40.917782}},{"xid":"N3824090278","name":"","rate":0,"osm":"node/3824090278","kinds":"shops,supermarkets,tourist_facilities","point":{"lon":-98.395836,"lat":40.58466}}]