[{'xid': 'N1328779418', 'name': 'Shop Smart', 'rate': 1, 'osm': 'node/1328779418', 'kinds': 'shops,supermarkets,tourist_facilities', 'point': {'lon': -123.823868, 'lat': 40.120216}}, {'xid': 'N4270230309', 'name': 'Rays Food Place', 'rate': 1, 'osm': 'node/4270230309', 'kinds': 'shops,supermarkets,tourist_facilities', 'point': {'lon': -123.632851, 'lat': 40.940109}}, {'xid': 'N4270365024', 'name': "Wiley's Supermarket", 'rate': 1, 'osm': 'node/4270365024', 'kinds': 'shops,supermarkets,tourist_facilities', 'point': {'lon': -123.18, 'lat': 40.553654}}, {'xid': 'N4406261491', 'name': 'Market', 'rate': 1, 'osm': 'node/4406261491', 'kinds': 'shops,supermarkets,tourist_facilities', 'point': {'lon': -123.872772, 'lat': 40.266464}}, {'xid': 'N5750641026', 'name': 'Chautauqua Natural foods', 'rate': 1, 'osm': 'node/5750641026', 'kinds': 'shops,supermarkets,tourist_facilities', 'point': {'lon': -123.793465, 'lat': 40.100494}}, {'xid': 'N4567639901', 'name': 'Norelpom Natural Foods', 'rate': 1, 'osm': 'node/4567639901', 'kinds': 'shops,supermarkets,tourist_facilities', 'point': {'lon': -123.18573, 'lat': 40.554199}}, {'xid': 'W53333754', 'name': "Ray's Food Place", 'rate': 1, 'osm': 'way/53333754', 'kinds': 'shops,supermarkets,tourist_facilities', 'point': {'lon': -123.794113, 'lat': 40.098679}}]