[{'xid': 'W182568171', 'name': 'Walmart Supercenter', 'rate': 1, 'osm': 'way/182568171', 'kinds': 'shops,supermarkets,tourist_facilities', 'point': {'lon': -90.359856, 'lat': 40.981785}}, {'xid': 'W558094740', 'name': 'Walmart Supercenter', 'rate': 1, 'osm': 'way/558094740', 'kinds': 'shops,supermarkets,tourist_facilities', 'point': {'lon': -90.64164, 'lat': 40.46109}}, {'xid': 'N530816333', 'name': 'Hi-Lo Supermarket', 'rate': 1, 'osm': 'node/530816333', 'kinds': 'shops,supermarkets,tourist_facilities', 'point': {'lon': -90.364365, 'lat': 40.93589}}, {'xid': 'N1928436090', 'name': 'Hy-Vee', 'rate': 1, 'osm': 'node/1928436090', 'kinds': 'shops,supermarkets,tourist_facilities', 'point': {'lon': -90.38063, 'lat': 40.971836}}, {'xid': 'N2761868798', 'name': 'Hy-Vee', 'rate': 1, 'osm': 'node/2761868798', 'kinds': 'shops,supermarkets,tourist_facilities', 'point': {'lon': -90.648186, 'lat': 40.460396}}, {'xid': 'N2761868802', 'name': 'Aldi', 'rate': 1, 'osm': 'node/2761868802', 'kinds': 'shops,supermarkets,tourist_facilities', 'point': {'lon': -90.649048, 'lat': 40.459129}}, {'xid': 'N2961583022', 'name': "Ludlum's Market", 'rate': 1, 'osm': 'node/2961583022', 'kinds': 'shops,supermarkets,tourist_facilities', 'point': {'lon': -90.499542, 'lat': 40.555733}}, {'xid': 'W76851847', 'name': 'County Market', 'rate': 1, 'osm': 'way/76851847', 'kinds': 'shops,supermarkets,tourist_facilities', 'point': {'lon': -90.044731, 'lat': 40.295456}}, {'xid': 'W622498241', 'name': 'Walmart', 'rate': 1, 'osm': 'way/622498241', 'kinds': 'shops,supermarkets,tourist_facilities', 'point': {'lon': -90.033272, 'lat': 40.592331}}, {'xid': 'N530822462', 'name': 'Hyvee', 'rate': 1, 'osm': 'node/530822462', 'kinds': 'shops,supermarkets,tourist_facilities', 'point': {'lon': -90.339684, 'lat': 40.946159}}, {'xid': 'N1929386570', 'name': 'Cornucopia Natural Foods', 'rate': 1, 'osm': 'node/1929386570', 'kinds': 'shops,supermarkets,tourist_facilities', 'point': {'lon': -90.364494, 'lat': 40.946499}}, {'xid': 'N5388414760', 'name': 'Jackson Street Market', 'rate': 1, 'osm': 'node/5388414760', 'kinds': 'shops,supermarkets,tourist_facilities', 'point': {'lon': -90.695602, 'lat': 40.458588}}]