[{'xid': 'W226188434', 'name': 'Walmart Supercenter', 'rate': 1, 'osm': 'way/226188434', 'kinds': 'shops,supermarkets,tourist_facilities', 'point': {'lon': -104.990456, 'lat': 40.526653}}, {'xid': 'W423692954', 'name': 'King Soopers', 'rate': 1, 'osm': 'way/423692954', 'kinds': 'shops,supermarkets,tourist_facilities', 'point': {'lon': -104.694679, 'lat': 40.392319}}, {'xid': 'W535678506', 'name': 'Heritage Market', 'rate': 1, 'osm': 'way/535678506', 'kinds': 'shops,supermarkets,tourist_facilities', 'point': {'lon': -104.713341, 'lat': 40.52277}}, {'xid': 'W684893036', 'name': 'Sprouts Farmers Market', 'rate': 1, 'osm': 'way/684893036', 'kinds': 'shops,supermarkets,tourist_facilities', 'point': {'lon': -104.758728, 'lat': 40.390823}}, {'xid': 'N847443301', 'name': 'King Soopers', 'rate': 1, 'osm': 'node/847443301', 'kinds': 'shops,supermarkets,tourist_facilities', 'point': {'lon': -104.939568, 'lat': 40.159065}}, {'xid': 'N1618343910', 'name': 'Safeway', 'rate': 1, 'osm': 'node/1618343910', 'kinds': 'shops,supermarkets,tourist_facilities', 'point': {'lon': -104.93988, 'lat': 40.118999}}, {'xid': 'N2588959627', 'name': 'Cosmic Market', 'rate': 1, 'osm': 'node/2588959627', 'kinds': 'shops,supermarkets,tourist_facilities', 'point': {'lon': -104.715363, 'lat': 40.392509}}, {'xid': 'N3272006887', 'name': 'King Soopers', 'rate': 1, 'osm': 'node/3272006887', 'kinds': 'shops,supermarkets,tourist_facilities', 'point': {'lon': -104.73336, 'lat': 40.404797}}, {'xid': 'N4186477562', 'name': 'Keene Market', 'rate': 1, 'osm': 'node/4186477562', 'kinds': 'shops,supermarkets,tourist_facilities', 'point': {'lon': -104.519508, 'lat': 40.108482}}, {'xid': 'W326804855', 'name': 'Walmart Supercenter', 'rate': 1, 'osm': 'way/326804855', 'kinds': 'shops,supermarkets,tourist_facilities', 'point': {'lon': -104.754677, 'lat': 40.422859}}, {'xid': 'W192311751', 'name': 'Napu Auto Parts', 'rate': 1, 'osm': 'way/192311751', 'kinds': 'shops,supermarkets,tourist_facilities', 'point': {'lon': -104.077919, 'lat': 40.232483}}, {'xid': 'W192329993', 'name': 'Country Hardware Do It Best', 'rate': 1, 'osm': 'way/192329993', 'kinds': 'shops,supermarkets,tourist_facilities', 'point': {'lon': -104.074097, 'lat': 40.230301}}, {'xid': 'W379461870', 'name': 'Walmart Supercenter', 'rate': 1, 'osm': 'way/379461870', 'kinds': 'shops,supermarkets,tourist_facilities', 'point': {'lon': -104.719086, 'lat': 40.386124}}, {'xid': 'W192313140', 'name': 'Wiggins Super Food', 'rate': 1, 'osm': 'way/192313140', 'kinds': 'shops,supermarkets,tourist_facilities', 'point': {'lon': -104.07975, 'lat': 40.233517}}, {'xid': 'W206350712', 'name': 'Hays Market', 'rate': 1, 'osm': 'way/206350712', 'kinds': 'shops,supermarkets,tourist_facilities', 'point': {'lon': -104.907776, 'lat': 40.334026}}, {'xid': 'W326482958', 'name': 'King Soopers', 'rate': 1, 'osm': 'way/326482958', 'kinds': 'shops,supermarkets,tourist_facilities', 'point': {'lon': -104.792473, 'lat': 40.419609}}, {'xid': 'W330175591', 'name': 'Safeway', 'rate': 1, 'osm': 'way/330175591', 'kinds': 'shops,supermarkets,tourist_facilities', 'point': {'lon': -104.752762, 'lat': 40.394321}}]