[{'xid': 'W218026776', 'name': 'Aldi', 'rate': 1, 'osm': 'way/218026776', 'kinds': 'shops,supermarkets,tourist_facilities', 'point': {'lon': -91.533539, 'lat': 40.964005}}, {'xid': 'W529788652', 'name': 'Hy-Vee', 'rate': 1, 'osm': 'way/529788652', 'kinds': 'shops,supermarkets,tourist_facilities', 'point': {'lon': -91.136703, 'lat': 40.816452}}, {'xid': 'N4913021620', 'name': 'Fareway Grocery', 'rate': 1, 'osm': 'node/4913021620', 'kinds': 'shops,supermarkets,tourist_facilities', 'point': {'lon': -91.138954, 'lat': 40.799068}}, {'xid': 'W302163319', 'name': 'Walmart Supercenter', 'rate': 1, 'osm': 'way/302163319', 'kinds': 'shops,supermarkets,tourist_facilities', 'point': {'lon': -91.160942, 'lat': 40.814293}}, {'xid': 'W355414347', 'name': 'Hy-Vee', 'rate': 1, 'osm': 'way/355414347', 'kinds': 'shops,supermarkets,tourist_facilities', 'point': {'lon': -91.402527, 'lat': 40.416687}}, {'xid': 'W655228449', 'name': 'Farm & Home Supply', 'rate': 1, 'osm': 'way/655228449', 'kinds': 'shops,supermarkets,tourist_facilities', 'point': {'lon': -91.397346, 'lat': 40.407471}}, {'xid': 'N4199715428', 'name': 'Hy-Vee', 'rate': 1, 'osm': 'node/4199715428', 'kinds': 'shops,supermarkets,tourist_facilities', 'point': {'lon': -91.343246, 'lat': 40.625805}}, {'xid': 'N4199901362', 'name': 'County Market', 'rate': 1, 'osm': 'node/4199901362', 'kinds': 'shops,supermarkets,tourist_facilities', 'point': {'lon': -91.330788, 'lat': 40.629917}}, {'xid': 'N6141054665', 'name': 'West Liberty Foods Market', 'rate': 1, 'osm': 'node/6141054665', 'kinds': 'shops,supermarkets,tourist_facilities', 'point': {'lon': -91.552902, 'lat': 40.966942}}, {'xid': 'N6141054676', 'name': "Yenchay's Oriental Food Market", 'rate': 1, 'osm': 'node/6141054676', 'kinds': 'shops,supermarkets,tourist_facilities', 'point': {'lon': -91.553078, 'lat': 40.965927}}, {'xid': 'W142217320', 'name': 'Walmart Supercenter', 'rate': 1, 'osm': 'way/142217320', 'kinds': 'shops,supermarkets,tourist_facilities', 'point': {'lon': -91.541862, 'lat': 40.979034}}, {'xid': 'W529790049', 'name': 'Hy-Vee', 'rate': 1, 'osm': 'way/529790049', 'kinds': 'shops,supermarkets,tourist_facilities', 'point': {'lon': -91.110718, 'lat': 40.80143}}, {'xid': 'W553816995', 'name': 'Aldi', 'rate': 1, 'osm': 'way/553816995', 'kinds': 'shops,supermarkets,tourist_facilities', 'point': {'lon': -91.136551, 'lat': 40.814133}}, {'xid': 'W654881281', 'name': 'Aldi', 'rate': 1, 'osm': 'way/654881281', 'kinds': 'shops,supermarkets,tourist_facilities', 'point': {'lon': -91.314758, 'lat': 40.631264}}, {'xid': 'W656312366', 'name': 'Hy-Vee', 'rate': 1, 'osm': 'way/656312366', 'kinds': 'shops,supermarkets,tourist_facilities', 'point': {'lon': -91.52964, 'lat': 40.960903}}]