[{'xid': 'W186983167', 'name': 'Fareway', 'rate': 1, 'osm': 'way/186983167', 'kinds': 'shops,supermarkets,tourist_facilities', 'point': {'lon': -95.982239, 'lat': 41.265564}}, {'xid': 'W192566117', 'name': 'Always Low Price Store', 'rate': 1, 'osm': 'way/192566117', 'kinds': 'shops,supermarkets,tourist_facilities', 'point': {'lon': -95.900436, 'lat': 41.261494}}, {'xid': 'W193040358', 'name': 'Fareway', 'rate': 1, 'osm': 'way/193040358', 'kinds': 'shops,supermarkets,tourist_facilities', 'point': {'lon': -95.819283, 'lat': 41.279808}}, {'xid': 'W193410643', 'name': 'No Frills Supermarket', 'rate': 1, 'osm': 'way/193410643', 'kinds': 'shops,supermarkets,tourist_facilities', 'point': {'lon': -95.817436, 'lat': 41.244076}}, {'xid': 'W323623264', 'name': 'Hy-Vee', 'rate': 1, 'osm': 'way/323623264', 'kinds': 'shops,supermarkets,tourist_facilities', 'point': {'lon': -95.994492, 'lat': 41.242527}}, {'xid': 'W552883291', 'name': "Baker's", 'rate': 1, 'osm': 'way/552883291', 'kinds': 'shops,supermarkets,tourist_facilities', 'point': {'lon': -95.95887, 'lat': 41.32613}}, {'xid': 'W632577334', 'name': 'Walmart Neighborhood Market', 'rate': 1, 'osm': 'way/632577334', 'kinds': 'shops,supermarkets,tourist_facilities', 'point': {'lon': -95.993271, 'lat': 41.21183}}, {'xid': 'W698426890', 'name': 'No Frills', 'rate': 1, 'osm': 'way/698426890', 'kinds': 'shops,supermarkets,tourist_facilities', 'point': {'lon': -95.742683, 'lat': 41.045906}}, {'xid': 'N2104846172', 'name': 'Manning Foods', 'rate': 1, 'osm': 'node/2104846172', 'kinds': 'shops,supermarkets,tourist_facilities', 'point': {'lon': -95.073814, 'lat': 41.907005}}, {'xid': 'N2861524967', 'name': 'Fareway', 'rate': 1, 'osm': 'node/2861524967', 'kinds': 'shops,supermarkets,tourist_facilities', 'point': {'lon': -95.015244, 'lat': 41.408077}}, {'xid': 'N3424295101', 'name': 'Family Fare', 'rate': 1, 'osm': 'node/3424295101', 'kinds': 'shops,supermarkets,tourist_facilities', 'point': {'lon': -95.913673, 'lat': 41.141678}}, {'xid': 'N3507844769', 'name': "Baker's", 'rate': 1, 'osm': 'node/3507844769', 'kinds': 'shops,supermarkets,tourist_facilities', 'point': {'lon': -95.969017, 'lat': 41.142345}}, {'xid': 'N3520911317', 'name': 'Aldi', 'rate': 1, 'osm': 'node/3520911317', 'kinds': 'shops,supermarkets,tourist_facilities', 'point': {'lon': -95.943428, 'lat': 41.159931}}, {'xid': 'N3706328526', 'name': 'Commisary', 'rate': 1, 'osm': 'node/3706328526', 'kinds': 'shops,supermarkets,tourist_facilities', 'point': {'lon': -95.922287, 'lat': 41.118343}}, {'xid': 'N4571079806', 'name': 'J-N-J Grocery', 'rate': 1, 'osm': 'node/4571079806', 'kinds': 'shops,supermarkets,tourist_facilities', 'point': {'lon': -95.975601, 'lat': 41.288563}}, {'xid': 'N4704787377', 'name': "Baker's", 'rate': 1, 'osm': 'node/4704787377', 'kinds': 'shops,supermarkets,tourist_facilities', 'point': {'lon': -95.987022, 'lat': 41.250908}}, {'xid': 'N4894235533', 'name': 'HyVee', 'rate': 1, 'osm': 'node/4894235533', 'kinds': 'shops,supermarkets,tourist_facilities', 'point': {'lon': -95.910446, 'lat': 41.01181}}, {'xid': 'N5154067874', 'name': 'Hy-Vee', 'rate': 1, 'osm': 'node/5154067874', 'kinds': 'shops,supermarkets,tourist_facilities', 'point': {'lon': -95.234703, 'lat': 41.019615}}, {'xid': 'N6559110546', 'name': "Russ's Market", 'rate': 1, 'osm': 'node/6559110546', 'kinds': 'shops,supermarkets,tourist_facilities', 'point': {'lon': -95.746521, 'lat': 41.039124}}, {'xid': 'N6575893002', 'name': 'JnD Grocery', 'rate': 1, 'osm': 'node/6575893002', 'kinds': 'shops,supermarkets,tourist_facilities', 'point': {'lon': -95.946693, 'lat': 41.317223}}, {'xid': 'W193450178', 'name': 'Aldi', 'rate': 1, 'osm': 'way/193450178', 'kinds': 'shops,supermarkets,tourist_facilities', 'point': {'lon': -95.846527, 'lat': 41.228832}}, {'xid': 'W260043429', 'name': "Mullholland's Grocery Store", 'rate': 1, 'osm': 'way/260043429', 'kinds': 'shops,supermarkets,tourist_facilities', 'point': {'lon': -95.585464, 'lat': 41.002785}}, {'xid': 'W690101908', 'name': 'Hy-Vee', 'rate': 1, 'osm': 'way/690101908', 'kinds': 'shops,supermarkets,tourist_facilities', 'point': {'lon': -95.87899, 'lat': 41.261417}}, {'xid': 'W193444275', 'name': 'The Vitamin Shoppe', 'rate': 1, 'osm': 'way/193444275', 'kinds': 'shops,supermarkets,tourist_facilities', 'point': {'lon': -95.835922, 'lat': 41.220356}}, {'xid': 'W189988372', 'name': 'Bakers', 'rate': 1, 'osm': 'way/189988372', 'kinds': 'shops,supermarkets,tourist_facilities', 'point': {'lon': -95.915726, 'lat': 41.153122}}, {'xid': 'W193240972', 'name': 'Hy-Vee', 'rate': 1, 'osm': 'way/193240972', 'kinds': 'shops,supermarkets,tourist_facilities', 'point': {'lon': -95.825615, 'lat': 41.244453}}, {'xid': 'W193446863', 'name': 'Walmart Supercenter', 'rate': 1, 'osm': 'way/193446863', 'kinds': 'shops,supermarkets,tourist_facilities', 'point': {'lon': -95.843933, 'lat': 41.227398}}, {'xid': 'W230165666', 'name': 'Aldi', 'rate': 1, 'osm': 'way/230165666', 'kinds': 'shops,supermarkets,tourist_facilities', 'point': {'lon': -95.956039, 'lat': 41.302395}}, {'xid': 'W324617624', 'name': 'Walmart Neighborhood Market', 'rate': 1, 'osm': 'way/324617624', 'kinds': 'shops,supermarkets,tourist_facilities', 'point': {'lon': -95.94281, 'lat': 41.116261}}, {'xid': 'W477069920', 'name': 'Walmart Neighborhood Market', 'rate': 1, 'osm': 'way/477069920', 'kinds': 'shops,supermarkets,tourist_facilities', 'point': {'lon': -95.981239, 'lat': 41.262589}}, {'xid': 'W632509917', 'name': 'Walmart Supercenter', 'rate': 1, 'osm': 'way/632509917', 'kinds': 'shops,supermarkets,tourist_facilities', 'point': {'lon': -95.868965, 'lat': 41.280106}}, {'xid': 'N4080963508', 'name': "Wohlner's Neighborhood Grocery & Deli", 'rate': 1, 'osm': 'node/4080963508', 'kinds': 'shops,supermarkets,tourist_facilities', 'point': {'lon': -95.961411, 'lat': 41.25946}}, {'xid': 'N4599202878', 'name': 'Aldi', 'rate': 1, 'osm': 'node/4599202878', 'kinds': 'shops,supermarkets,tourist_facilities', 'point': {'lon': -95.958122, 'lat': 41.214302}}, {'xid': 'N5546175239', 'name': "Selena's Market", 'rate': 1, 'osm': 'node/5546175239', 'kinds': 'shops,supermarkets,tourist_facilities', 'point': {'lon': -95.961441, 'lat': 41.264851}}, {'xid': 'W112803258', 'name': 'Hy-Vee', 'rate': 1, 'osm': 'way/112803258', 'kinds': 'shops,supermarkets,tourist_facilities', 'point': {'lon': -95.336288, 'lat': 41.645061}}, {'xid': 'W311471340', 'name': 'Walmart Supercenter', 'rate': 1, 'osm': 'way/311471340', 'kinds': 'shops,supermarkets,tourist_facilities', 'point': {'lon': -95.991478, 'lat': 41.301952}}, {'xid': 'W322583867', 'name': 'Walmart Supercenter', 'rate': 1, 'osm': 'way/322583867', 'kinds': 'shops,supermarkets,tourist_facilities', 'point': {'lon': -95.936684, 'lat': 41.155659}}, {'xid': 'W698747754', 'name': 'Latino Market', 'rate': 1, 'osm': 'way/698747754', 'kinds': 'shops,supermarkets,tourist_facilities', 'point': {'lon': -95.867119, 'lat': 41.267651}}, {'xid': 'N4077696476', 'name': '', 'rate': 0, 'osm': 'node/4077696476', 'kinds': 'shops,supermarkets,tourist_facilities', 'point': {'lon': -95.948463, 'lat': 41.230965}}, {'xid': 'N4079421775', 'name': '', 'rate': 0, 'osm': 'node/4079421775', 'kinds': 'shops,supermarkets,tourist_facilities', 'point': {'lon': -95.960075, 'lat': 41.32716}}, {'xid': 'N4158873152', 'name': '', 'rate': 0, 'osm': 'node/4158873152', 'kinds': 'shops,supermarkets,tourist_facilities', 'point': {'lon': -95.23468, 'lat': 41.028217}}, {'xid': 'N4158896597', 'name': '', 'rate': 0, 'osm': 'node/4158896597', 'kinds': 'shops,supermarkets,tourist_facilities', 'point': {'lon': -95.234306, 'lat': 41.011505}}]