[{'xid': 'N306074361', 'name': "Macey's", 'rate': 1, 'osm': 'node/306074361', 'kinds': 'shops,supermarkets,tourist_facilities', 'point': {'lon': -112.066368, 'lat': 41.14151}}, {'xid': 'N306835249', 'name': "Winegar's", 'rate': 1, 'osm': 'node/306835249', 'kinds': 'shops,supermarkets,tourist_facilities', 'point': {'lon': -112.062721, 'lat': 41.177387}}, {'xid': 'N307361826', 'name': "Smith's", 'rate': 1, 'osm': 'node/307361826', 'kinds': 'shops,supermarkets,tourist_facilities', 'point': {'lon': -112.028564, 'lat': 41.14793}}, {'xid': 'N308444242', 'name': 'Natural Foods', 'rate': 1, 'osm': 'node/308444242', 'kinds': 'shops,supermarkets,tourist_facilities', 'point': {'lon': -112.003845, 'lat': 41.177578}}, {'xid': 'N355819779', 'name': "Winegar's Grocery", 'rate': 1, 'osm': 'node/355819779', 'kinds': 'shops,supermarkets,tourist_facilities', 'point': {'lon': -112.046768, 'lat': 41.119415}}, {'xid': 'N533938047', 'name': "Harmon's", 'rate': 1, 'osm': 'node/533938047', 'kinds': 'shops,supermarkets,tourist_facilities', 'point': {'lon': -112.024529, 'lat': 41.166332}}, {'xid': 'N673035892', 'name': 'WinCo Foods', 'rate': 1, 'osm': 'node/673035892', 'kinds': 'shops,supermarkets,tourist_facilities', 'point': {'lon': -112.061737, 'lat': 41.153217}}, {'xid': 'N1214409325', 'name': 'Saigon Market', 'rate': 1, 'osm': 'node/1214409325', 'kinds': 'shops,supermarkets,tourist_facilities', 'point': {'lon': -112.026489, 'lat': 41.140087}}, {'xid': 'N2646145301', 'name': "Kent's MarketPlace", 'rate': 1, 'osm': 'node/2646145301', 'kinds': 'shops,supermarkets,tourist_facilities', 'point': {'lon': -112.014847, 'lat': 41.516541}}, {'xid': 'N307362738', 'name': 'Kents', 'rate': 1, 'osm': 'node/307362738', 'kinds': 'shops,supermarkets,tourist_facilities', 'point': {'lon': -112.065819, 'lat': 41.162975}}, {'xid': 'W27878199', 'name': 'Walmart Supercenter', 'rate': 1, 'osm': 'way/27878199', 'kinds': 'shops,supermarkets,tourist_facilities', 'point': {'lon': -112.060883, 'lat': 41.137192}}, {'xid': 'W28240425', 'name': "Sam's Club", 'rate': 1, 'osm': 'way/28240425', 'kinds': 'shops,supermarkets,tourist_facilities', 'point': {'lon': -112.001076, 'lat': 41.173195}}, {'xid': 'W79583251', 'name': 'Walmart Supercenter', 'rate': 1, 'osm': 'way/79583251', 'kinds': 'shops,supermarkets,tourist_facilities', 'point': {'lon': -112.030296, 'lat': 41.483997}}, {'xid': 'W247649576', 'name': "Smith's Food and Drug", 'rate': 1, 'osm': 'way/247649576', 'kinds': 'shops,supermarkets,tourist_facilities', 'point': {'lon': -112.016624, 'lat': 41.506474}}, {'xid': 'N308973217', 'name': "Kent's", 'rate': 1, 'osm': 'node/308973217', 'kinds': 'shops,supermarkets,tourist_facilities', 'point': {'lon': -112.018501, 'lat': 41.104553}}, {'xid': 'N750196679', 'name': 'Down to Earth Natural Foods', 'rate': 1, 'osm': 'node/750196679', 'kinds': 'shops,supermarkets,tourist_facilities', 'point': {'lon': -112.025551, 'lat': 41.164734}}, {'xid': 'N3385408017', 'name': "Kent's Market", 'rate': 1, 'osm': 'node/3385408017', 'kinds': 'shops,supermarkets,tourist_facilities', 'point': {'lon': -112.161789, 'lat': 41.711052}}]