[{"xid":"N4312100840","name":"Smith's","rate":3,"osm":"node/4312100840","wikidata":"Q7544856","kinds":"shops,supermarkets,tourist_facilities","point":{"lon":-111.950676,"lat":41.185467}},{"xid":"W481851115","name":"Harvest Moon Health Foods","rate":1,"osm":"way/481851115","kinds":"shops,supermarkets,tourist_facilities","point":{"lon":-111.986084,"lat":41.077789}},{"xid":"W493145548","name":"Macey's","rate":1,"osm":"way/493145548","kinds":"shops,supermarkets,tourist_facilities","point":{"lon":-111.831657,"lat":41.708866}},{"xid":"N415249152","name":"Jubilee","rate":1,"osm":"node/415249152","kinds":"shops,supermarkets,tourist_facilities","point":{"lon":-111.679146,"lat":41.044365}},{"xid":"N424578121","name":"Smith's","rate":1,"osm":"node/424578121","kinds":"shops,supermarkets,tourist_facilities","point":{"lon":-111.830231,"lat":41.739697}},{"xid":"N424578122","name":"Macey's","rate":1,"osm":"node/424578122","kinds":"shops,supermarkets,tourist_facilities","point":{"lon":-111.832733,"lat":41.740143}},{"xid":"N509040436","name":"Smith's Marketplace","rate":1,"osm":"node/509040436","kinds":"shops,supermarkets,tourist_facilities","point":{"lon":-111.96637,"lat":41.302948}},{"xid":"N658965416","name":"Fresh Market","rate":1,"osm":"node/658965416","kinds":"shops,supermarkets,tourist_facilities","point":{"lon":-111.941261,"lat":41.038673}},{"xid":"N711314834","name":"Macey's","rate":1,"osm":"node/711314834","kinds":"shops,supermarkets,tourist_facilities","point":{"lon":-111.972984,"lat":41.196682}},{"xid":"N802825720","name":"Smith's","rate":1,"osm":"node/802825720","kinds":"shops,supermarkets,tourist_facilities","point":{"lon":-111.946503,"lat":41.240887}},{"xid":"N2750879703","name":"Commissary","rate":1,"osm":"node/2750879703","kinds":"shops,supermarkets,tourist_facilities","point":{"lon":-111.985008,"lat":41.109699}},{"xid":"N3633059453","name":"Lakeview Market","rate":1,"osm":"node/3633059453","kinds":"shops,supermarkets,tourist_facilities","point":{"lon":-111.397896,"lat":41.95573}},{"xid":"N4320436404","name":"Carl's Super Saver","rate":1,"osm":"node/4320436404","kinds":"shops,supermarkets,tourist_facilities","point":{"lon":-111.949509,"lat":41.207027}},{"xid":"N5108384013","name":"Grumps General Store","rate":1,"osm":"node/5108384013","kinds":"shops,supermarkets,tourist_facilities","point":{"lon":-111.502327,"lat":41.022633}},{"xid":"R6432854","name":"Walmart Neighborhood Market","rate":1,"osm":"relation/6432854","kinds":"shops,supermarkets,tourist_facilities","point":{"lon":-111.940475,"lat":41.099804}},{"xid":"W40016094","name":"Bowmans Supermarket","rate":1,"osm":"way/40016094","kinds":"shops,supermarkets,tourist_facilities","point":{"lon":-111.940704,"lat":41.041523}},{"xid":"W226185027","name":"Walmart Supercenter","rate":1,"osm":"way/226185027","kinds":"shops,supermarkets,tourist_facilities","point":{"lon":-111.830475,"lat":41.760342}},{"xid":"W38060128","name":"The Fresh Market","rate":1,"osm":"way/38060128","kinds":"shops,supermarkets,tourist_facilities","point":{"lon":-111.948814,"lat":41.073025}},{"xid":"W470118385","name":"The Island Market","rate":1,"osm":"way/470118385","kinds":"shops,supermarkets,tourist_facilities","point":{"lon":-111.824547,"lat":41.731102}},{"xid":"W40479827","name":"Ridley's","rate":1,"osm":"way/40479827","kinds":"shops,supermarkets,tourist_facilities","point":{"lon":-111.972397,"lat":41.259937}},{"xid":"W63514089","name":"Smith's","rate":1,"osm":"way/63514089","kinds":"shops,supermarkets,tourist_facilities","point":{"lon":-111.943512,"lat":41.060383}},{"xid":"W473615900","name":"WinCo","rate":1,"osm":"way/473615900","kinds":"shops,supermarkets,tourist_facilities","point":{"lon":-111.959549,"lat":41.057701}},{"xid":"W483082461","name":"Walmart Supercenter","rate":1,"osm":"way/483082461","kinds":"shops,supermarkets,tourist_facilities","point":{"lon":-111.979637,"lat":41.068394}},{"xid":"N490548656","name":"Wangsgards","rate":1,"osm":"node/490548656","kinds":"shops,supermarkets,tourist_facilities","point":{"lon":-111.972328,"lat":41.260025}},{"xid":"N1512366585","name":"Fresh Market","rate":1,"osm":"node/1512366585","kinds":"shops,supermarkets,tourist_facilities","point":{"lon":-111.941765,"lat":41.159718}},{"xid":"N4317618940","name":"Rancho Market","rate":1,"osm":"node/4317618940","kinds":"shops,supermarkets,tourist_facilities","point":{"lon":-111.956223,"lat":41.217922}},{"xid":"N4328335509","name":"Lee's Market Place","rate":1,"osm":"node/4328335509","kinds":"shops,supermarkets,tourist_facilities","point":{"lon":-111.970978,"lat":41.307201}},{"xid":"W38093981","name":"Walmart Supercenter","rate":1,"osm":"way/38093981","kinds":"shops,supermarkets,tourist_facilities","point":{"lon":-111.998627,"lat":41.176121}},{"xid":"W358562895","name":"Walmart Supercenter","rate":1,"osm":"way/358562895","kinds":"shops,supermarkets,tourist_facilities","point":{"lon":-111.835945,"lat":41.712051}},{"xid":"W32829701","name":"Sam's Club","rate":1,"osm":"way/32829701","kinds":"shops,supermarkets,tourist_facilities","point":{"lon":-111.984543,"lat":41.071083}},{"xid":"W42455568","name":"Smiths Food Center","rate":1,"osm":"way/42455568","kinds":"shops,supermarkets,tourist_facilities","point":{"lon":-111.906685,"lat":41.002289}},{"xid":"W51359639","name":"Walmart Neighborhood Market","rate":1,"osm":"way/51359639","kinds":"shops,supermarkets,tourist_facilities","point":{"lon":-111.93853,"lat":41.152187}},{"xid":"W53436157","name":"Rancho Market","rate":1,"osm":"way/53436157","kinds":"shops,supermarkets,tourist_facilities","point":{"lon":-111.969231,"lat":41.256008}},{"xid":"N673035504","name":"WinCo Foods","rate":1,"osm":"node/673035504","kinds":"shops,supermarkets,tourist_facilities","point":{"lon":-111.981247,"lat":41.24247}},{"xid":"N5315598973","name":"Walmart Supercenter","rate":1,"osm":"node/5315598973","kinds":"shops,supermarkets,tourist_facilities","point":{"lon":-111.973022,"lat":41.269566}},{"xid":"N660916091","name":"Natural Foods","rate":1,"osm":"node/660916091","kinds":"shops,supermarkets,tourist_facilities","point":{"lon":-111.973328,"lat":41.244987}},{"xid":"N2703551534","name":"Smith's Marketplace","rate":1,"osm":"node/2703551534","kinds":"shops,supermarkets,tourist_facilities","point":{"lon":-111.832771,"lat":41.745544}}]