[{'xid': 'W665948844', 'name': 'Albertsons', 'rate': 1, 'osm': 'way/665948844', 'kinds': 'shops,supermarkets,tourist_facilities', 'point': {'lon': -106.339012, 'lat': 42.835018}}, {'xid': 'W665948850', 'name': "Smith's", 'rate': 1, 'osm': 'way/665948850', 'kinds': 'shops,supermarkets,tourist_facilities', 'point': {'lon': -106.353081, 'lat': 42.827984}}, {'xid': 'W129481781', 'name': 'Ridleys', 'rate': 1, 'osm': 'way/129481781', 'kinds': 'shops,supermarkets,tourist_facilities', 'point': {'lon': -106.339951, 'lat': 42.83218}}, {'xid': 'W129482199', 'name': 'Safeway', 'rate': 1, 'osm': 'way/129482199', 'kinds': 'shops,supermarkets,tourist_facilities', 'point': {'lon': -106.272614, 'lat': 42.848171}}, {'xid': 'W265112879', 'name': 'Walmart Supercenter', 'rate': 1, 'osm': 'way/265112879', 'kinds': 'shops,supermarkets,tourist_facilities', 'point': {'lon': -106.266899, 'lat': 42.851421}}]