[{'xid': 'W356806814', 'name': 'Tops Friendly Markets', 'rate': 1, 'osm': 'way/356806814', 'kinds': 'shops,supermarkets,tourist_facilities', 'point': {'lon': -77.330109, 'lat': 42.335987}}, {'xid': 'W515635759', 'name': "Carey's Grocery", 'rate': 1, 'osm': 'way/515635759', 'kinds': 'shops,supermarkets,tourist_facilities', 'point': {'lon': -77.493828, 'lat': 42.500656}}, {'xid': 'N382987859', 'name': 'Surefine', 'rate': 1, 'osm': 'node/382987859', 'kinds': 'shops,supermarkets,tourist_facilities', 'point': {'lon': -77.505196, 'lat': 42.788181}}, {'xid': 'N853295665', 'name': 'Big M', 'rate': 1, 'osm': 'node/853295665', 'kinds': 'shops,supermarkets,tourist_facilities', 'point': {'lon': -77.140717, 'lat': 42.968418}}, {'xid': 'N2348905060', 'name': 'Aldi', 'rate': 1, 'osm': 'node/2348905060', 'kinds': 'shops,supermarkets,tourist_facilities', 'point': {'lon': -77.105156, 'lat': 42.153156}}, {'xid': 'N3245631461', 'name': 'Tops', 'rate': 1, 'osm': 'node/3245631461', 'kinds': 'shops,supermarkets,tourist_facilities', 'point': {'lon': -77.077858, 'lat': 42.152592}}, {'xid': 'N3622183295', 'name': 'Save-A-Lot', 'rate': 1, 'osm': 'node/3622183295', 'kinds': 'shops,supermarkets,tourist_facilities', 'point': {'lon': -77.717941, 'lat': 42.569294}}, {'xid': 'N4412525322', 'name': 'Crooked Lake Mercentaile', 'rate': 1, 'osm': 'node/4412525322', 'kinds': 'shops,supermarkets,tourist_facilities', 'point': {'lon': -77.153755, 'lat': 42.598854}}, {'xid': 'N5364793842', 'name': 'Tops', 'rate': 1, 'osm': 'node/5364793842', 'kinds': 'shops,supermarkets,tourist_facilities', 'point': {'lon': -77.962959, 'lat': 42.126949}}, {'xid': 'N5720295753', 'name': 'Honeoye Falls Marketplace', 'rate': 1, 'osm': 'node/5720295753', 'kinds': 'shops,supermarkets,tourist_facilities', 'point': {'lon': -77.60289, 'lat': 42.948071}}, {'xid': 'W88260327', 'name': "Wade's", 'rate': 1, 'osm': 'way/88260327', 'kinds': 'shops,supermarkets,tourist_facilities', 'point': {'lon': -77.361916, 'lat': 42.972923}}, {'xid': 'W89598600', 'name': 'Wegmans', 'rate': 1, 'osm': 'way/89598600', 'kinds': 'shops,supermarkets,tourist_facilities', 'point': {'lon': -77.255035, 'lat': 42.875599}}, {'xid': 'W258300142', 'name': 'Wegmans', 'rate': 1, 'osm': 'way/258300142', 'kinds': 'shops,supermarkets,tourist_facilities', 'point': {'lon': -77.670357, 'lat': 42.348721}}, {'xid': 'N4412529710', 'name': 'Keuka Corner', 'rate': 1, 'osm': 'node/4412529710', 'kinds': 'shops,supermarkets,tourist_facilities', 'point': {'lon': -77.154205, 'lat': 42.598431}}, {'xid': 'N5315599553', 'name': 'Walmart', 'rate': 1, 'osm': 'node/5315599553', 'kinds': 'shops,supermarkets,tourist_facilities', 'point': {'lon': -77.669029, 'lat': 42.346455}}, {'xid': 'W88222865', 'name': 'Dollar General', 'rate': 1, 'osm': 'way/88222865', 'kinds': 'shops,supermarkets,tourist_facilities', 'point': {'lon': -77.231407, 'lat': 42.963882}}, {'xid': 'W87610302', 'name': 'Bliss Shurfine Food Mart', 'rate': 1, 'osm': 'way/87610302', 'kinds': 'shops,supermarkets,tourist_facilities', 'point': {'lon': -77.229584, 'lat': 42.960987}}, {'xid': 'W248290436', 'name': 'Tops Friendly Markets', 'rate': 1, 'osm': 'way/248290436', 'kinds': 'shops,supermarkets,tourist_facilities', 'point': {'lon': -77.732529, 'lat': 42.911465}}, {'xid': 'W298484698', 'name': 'Walmart Supercenter', 'rate': 1, 'osm': 'way/298484698', 'kinds': 'shops,supermarkets,tourist_facilities', 'point': {'lon': -77.021584, 'lat': 42.859848}}, {'xid': 'W357005815', 'name': 'Tops', 'rate': 1, 'osm': 'way/357005815', 'kinds': 'shops,supermarkets,tourist_facilities', 'point': {'lon': -77.712273, 'lat': 42.563931}}, {'xid': 'W89598601', 'name': "Aldi's", 'rate': 1, 'osm': 'way/89598601', 'kinds': 'shops,supermarkets,tourist_facilities', 'point': {'lon': -77.246941, 'lat': 42.877239}}, {'xid': 'W89598625', 'name': 'Walmart Supercenter', 'rate': 1, 'osm': 'way/89598625', 'kinds': 'shops,supermarkets,tourist_facilities', 'point': {'lon': -77.239868, 'lat': 42.87606}}, {'xid': 'W197709627', 'name': 'Walmart Supercenter', 'rate': 1, 'osm': 'way/197709627', 'kinds': 'shops,supermarkets,tourist_facilities', 'point': {'lon': -77.78846, 'lat': 42.802544}}, {'xid': 'W258300141', 'name': 'Wegmans', 'rate': 1, 'osm': 'way/258300141', 'kinds': 'shops,supermarkets,tourist_facilities', 'point': {'lon': -77.783951, 'lat': 42.797131}}, {'xid': 'W258300143', 'name': 'Wegmans', 'rate': 1, 'osm': 'way/258300143', 'kinds': 'shops,supermarkets,tourist_facilities', 'point': {'lon': -77.063385, 'lat': 42.146008}}, {'xid': 'N5364793913', 'name': 'Save-A-Lot', 'rate': 1, 'osm': 'node/5364793913', 'kinds': 'shops,supermarkets,tourist_facilities', 'point': {'lon': -77.966637, 'lat': 42.127781}}, {'xid': 'W88217343', 'name': 'Herendeen Brothers', 'rate': 1, 'osm': 'way/88217343', 'kinds': 'shops,supermarkets,tourist_facilities', 'point': {'lon': -77.222305, 'lat': 42.955841}}, {'xid': 'W88260337', 'name': "Aldi's", 'rate': 1, 'osm': 'way/88260337', 'kinds': 'shops,supermarkets,tourist_facilities', 'point': {'lon': -77.354599, 'lat': 42.971828}}, {'xid': 'N5397161218', 'name': 'Giant Food Mart', 'rate': 1, 'osm': 'node/5397161218', 'kinds': 'shops,supermarkets,tourist_facilities', 'point': {'lon': -77.946899, 'lat': 42.120461}}, {'xid': 'W638711754', 'name': '', 'rate': 0, 'osm': 'way/638711754', 'kinds': 'shops,supermarkets,tourist_facilities', 'point': {'lon': -77.602837, 'lat': 42.948032}}, {'xid': 'N1590505898', 'name': '', 'rate': 0, 'osm': 'node/1590505898', 'kinds': 'shops,supermarkets,tourist_facilities', 'point': {'lon': -77.296272, 'lat': 42.904434}}, {'xid': 'N5364793843', 'name': '', 'rate': 0, 'osm': 'node/5364793843', 'kinds': 'shops,supermarkets,tourist_facilities', 'point': {'lon': -77.962616, 'lat': 42.126213}}]