[{'xid': 'W327369329', 'name': 'Walmart Supercenter', 'rate': 1, 'osm': 'way/327369329', 'kinds': 'shops,supermarkets,tourist_facilities', 'point': {'lon': -90.833, 'lat': 43.941265}}, {'xid': 'W423726999', 'name': 'Whitaker Farm Fresh Market', 'rate': 1, 'osm': 'way/423726999', 'kinds': 'shops,supermarkets,tourist_facilities', 'point': {'lon': -90.339584, 'lat': 43.650715}}, {'xid': 'W478965254', 'name': 'Walmart Supercenter', 'rate': 1, 'osm': 'way/478965254', 'kinds': 'shops,supermarkets,tourist_facilities', 'point': {'lon': -90.886276, 'lat': 43.570137}}, {'xid': 'N1185553492', 'name': "Stuckey's Market", 'rate': 1, 'osm': 'node/1185553492', 'kinds': 'shops,supermarkets,tourist_facilities', 'point': {'lon': -90.88488, 'lat': 43.083492}}, {'xid': 'N3610212299', 'name': 'Country Market', 'rate': 1, 'osm': 'node/3610212299', 'kinds': 'shops,supermarkets,tourist_facilities', 'point': {'lon': -90.327988, 'lat': 43.661282}}, {'xid': 'N3846861495', 'name': 'Nelson Agri-Center', 'rate': 1, 'osm': 'node/3846861495', 'kinds': 'shops,supermarkets,tourist_facilities', 'point': {'lon': -90.887459, 'lat': 43.557671}}, {'xid': 'N3846881452', 'name': 'Village Market', 'rate': 1, 'osm': 'node/3846881452', 'kinds': 'shops,supermarkets,tourist_facilities', 'point': {'lon': -90.891037, 'lat': 43.574097}}, {'xid': 'N5306489878', 'name': "Johnson's", 'rate': 1, 'osm': 'node/5306489878', 'kinds': 'shops,supermarkets,tourist_facilities', 'point': {'lon': -90.960876, 'lat': 43.263126}}, {'xid': 'W326129349', 'name': "Blabaum's Food Center", 'rate': 1, 'osm': 'way/326129349', 'kinds': 'shops,supermarkets,tourist_facilities', 'point': {'lon': -90.380707, 'lat': 43.045715}}, {'xid': 'W648582029', 'name': "Quillin's", 'rate': 1, 'osm': 'way/648582029', 'kinds': 'shops,supermarkets,tourist_facilities', 'point': {'lon': -90.009544, 'lat': 43.534306}}, {'xid': 'W301685849', 'name': 'Festival Foods', 'rate': 1, 'osm': 'way/301685849', 'kinds': 'shops,supermarkets,tourist_facilities', 'point': {'lon': -90.067566, 'lat': 43.805893}}, {'xid': 'W295678155', 'name': 'Walmart Supercenter', 'rate': 1, 'osm': 'way/295678155', 'kinds': 'shops,supermarkets,tourist_facilities', 'point': {'lon': -90.348862, 'lat': 43.312473}}, {'xid': 'W89599126', 'name': "Bergum's Food Mart", 'rate': 1, 'osm': 'way/89599126', 'kinds': 'shops,supermarkets,tourist_facilities', 'point': {'lon': -90.635376, 'lat': 43.574574}}, {'xid': 'W478961141', 'name': 'Piggly Wiggly', 'rate': 1, 'osm': 'way/478961141', 'kinds': 'shops,supermarkets,tourist_facilities', 'point': {'lon': -90.707069, 'lat': 43.134151}}, {'xid': 'W619002756', 'name': 'Hometown Supermarket', 'rate': 1, 'osm': 'way/619002756', 'kinds': 'shops,supermarkets,tourist_facilities', 'point': {'lon': -90.066277, 'lat': 43.175823}}, {'xid': 'W555873655', 'name': 'Festival Foods', 'rate': 1, 'osm': 'way/555873655', 'kinds': 'shops,supermarkets,tourist_facilities', 'point': {'lon': -90.496735, 'lat': 43.97094}}, {'xid': 'W180963345', 'name': "Ed's Family Foods", 'rate': 1, 'osm': 'way/180963345', 'kinds': 'shops,supermarkets,tourist_facilities', 'point': {'lon': -90.388252, 'lat': 43.335331}}]