[{"xid":"W265259523","name":"Co-op Food Stores White River Junction","rate":1,"osm":"way/265259523","kinds":"shops,supermarkets,tourist_facilities","point":{"lon":-72.318336,"lat":43.65234}},{"xid":"W291683596","name":"Lisai's Market","rate":1,"osm":"way/291683596","kinds":"shops,supermarkets,tourist_facilities","point":{"lon":-72.453049,"lat":43.137871}},{"xid":"W694202831","name":"Co-Op Food Stores - Hanover","rate":1,"osm":"way/694202831","kinds":"shops,supermarkets,tourist_facilities","point":{"lon":-72.280548,"lat":43.698151}},{"xid":"N251898127","name":"Lebanon CO-OP","rate":1,"osm":"node/251898127","kinds":"shops,supermarkets,tourist_facilities","point":{"lon":-72.260719,"lat":43.676556}},{"xid":"N615057122","name":"Asian Super Store","rate":1,"osm":"node/615057122","kinds":"shops,supermarkets,tourist_facilities","point":{"lon":-72.253578,"lat":43.642879}},{"xid":"N891897095","name":"Hannaford","rate":1,"osm":"node/891897095","kinds":"shops,supermarkets,tourist_facilities","point":{"lon":-72.323639,"lat":43.370781}},{"xid":"N1308387067","name":"MarketBasket","rate":1,"osm":"node/1308387067","kinds":"shops,supermarkets,tourist_facilities","point":{"lon":-72.319176,"lat":43.363434}},{"xid":"N1556598859","name":"Shaw's Supermarket","rate":1,"osm":"node/1556598859","kinds":"shops,supermarkets,tourist_facilities","point":{"lon":-72.703659,"lat":43.396954}},{"xid":"N1597624664","name":"Clark's (Supermarket)","rate":1,"osm":"node/1597624664","kinds":"shops,supermarkets,tourist_facilities","point":{"lon":-72.814873,"lat":43.228539}},{"xid":"N3141079988","name":"Shaws","rate":1,"osm":"node/3141079988","kinds":"shops,supermarkets,tourist_facilities","point":{"lon":-72.426361,"lat":43.105495}},{"xid":"N5351323780","name":"Brownsville General Dealer","rate":1,"osm":"node/5351323780","kinds":"shops,supermarkets,tourist_facilities","point":{"lon":-72.46936,"lat":43.467346}},{"xid":"W143932535","name":"Hannaford","rate":1,"osm":"way/143932535","kinds":"shops,supermarkets,tourist_facilities","point":{"lon":-72.970932,"lat":43.585812}},{"xid":"W548612679","name":"Co-Op Market","rate":1,"osm":"way/548612679","kinds":"shops,supermarkets,tourist_facilities","point":{"lon":-72.273506,"lat":43.718399}},{"xid":"N3768289877","name":"Hannaford","rate":1,"osm":"node/3768289877","kinds":"shops,supermarkets,tourist_facilities","point":{"lon":-72.003197,"lat":43.423141}},{"xid":"W473909044","name":"Hannaford","rate":1,"osm":"way/473909044","kinds":"shops,supermarkets,tourist_facilities","point":{"lon":-72.317192,"lat":43.636295}},{"xid":"N1308387079","name":"KMart","rate":1,"osm":"node/1308387079","kinds":"shops,supermarkets,tourist_facilities","point":{"lon":-72.316666,"lat":43.362457}},{"xid":"N2016948169","name":"Wings Supermarket","rate":1,"osm":"node/2016948169","kinds":"shops,supermarkets,tourist_facilities","point":{"lon":-72.189529,"lat":43.812782}},{"xid":"N2599115796","name":"Single's","rate":1,"osm":"node/2599115796","kinds":"shops,supermarkets,tourist_facilities","point":{"lon":-72.640236,"lat":43.381569}},{"xid":"N4587724150","name":"Shaw's","rate":1,"osm":"node/4587724150","kinds":"shops,supermarkets,tourist_facilities","point":{"lon":-72.175949,"lat":43.358036}},{"xid":"N5098408283","name":"Swiss Farm Market","rate":1,"osm":"node/5098408283","kinds":"shops,supermarkets,tourist_facilities","point":{"lon":-72.812622,"lat":43.77248}},{"xid":"N5432477158","name":"West Wardsboro Store","rate":1,"osm":"node/5432477158","kinds":"shops,supermarkets,tourist_facilities","point":{"lon":-72.854362,"lat":43.029369}},{"xid":"W106468466","name":"Shaw's","rate":1,"osm":"way/106468466","kinds":"shops,supermarkets,tourist_facilities","point":{"lon":-72.31562,"lat":43.63205}},{"xid":"W143932164","name":"Price Chopper","rate":1,"osm":"way/143932164","kinds":"shops,supermarkets,tourist_facilities","point":{"lon":-72.977905,"lat":43.603756}},{"xid":"W226669337","name":"JIFFY Mart","rate":1,"osm":"way/226669337","kinds":"shops,supermarkets,tourist_facilities","point":{"lon":-72.588043,"lat":43.258514}},{"xid":"W241953576","name":"Wings Market and Deli","rate":1,"osm":"way/241953576","kinds":"shops,supermarkets,tourist_facilities","point":{"lon":-72.149803,"lat":43.903683}},{"xid":"W255569659","name":"Price Chopper","rate":1,"osm":"way/255569659","kinds":"shops,supermarkets,tourist_facilities","point":{"lon":-72.28775,"lat":43.637135}},{"xid":"W264800338","name":"Price Chopper","rate":1,"osm":"way/264800338","kinds":"shops,supermarkets,tourist_facilities","point":{"lon":-72.325027,"lat":43.623482}},{"xid":"W265259997","name":"Stern's Quality Produce","rate":1,"osm":"way/265259997","kinds":"shops,supermarkets,tourist_facilities","point":{"lon":-72.316994,"lat":43.652954}},{"xid":"W307249331","name":"Upper Valley Food Coop","rate":1,"osm":"way/307249331","kinds":"shops,supermarkets,tourist_facilities","point":{"lon":-72.321899,"lat":43.650314}},{"xid":"W633150341","name":"Walmart Supercenter","rate":1,"osm":"way/633150341","kinds":"shops,supermarkets,tourist_facilities","point":{"lon":-72.328987,"lat":43.377903}},{"xid":"W685731087","name":"Jake's Quechee Market","rate":1,"osm":"way/685731087","kinds":"shops,supermarkets,tourist_facilities","point":{"lon":-72.424644,"lat":43.644958}},{"xid":"W150581432","name":"Shaw's","rate":1,"osm":"way/150581432","kinds":"shops,supermarkets,tourist_facilities","point":{"lon":-72.663132,"lat":43.91198}},{"xid":"W178477559","name":"","rate":0,"osm":"way/178477559","kinds":"shops,supermarkets,tourist_facilities","point":{"lon":-72.658379,"lat":43.027863}}]