[{'xid': 'W206820060', 'name': 'Safeway', 'rate': 1, 'osm': 'way/206820060', 'kinds': 'shops,supermarkets,tourist_facilities', 'point': {'lon': -123.349686, 'lat': 43.229385}}, {'xid': 'W442078645', 'name': 'Comercial Mexicana', 'rate': 1, 'osm': 'way/442078645', 'kinds': 'shops,supermarkets,tourist_facilities', 'point': {'lon': -123.056366, 'lat': 43.805965}}, {'xid': 'W552957863', 'name': 'Rays food place', 'rate': 1, 'osm': 'way/552957863', 'kinds': 'shops,supermarkets,tourist_facilities', 'point': {'lon': -123.291817, 'lat': 43.014931}}, {'xid': 'N3194273789', 'name': "Ray's", 'rate': 1, 'osm': 'node/3194273789', 'kinds': 'shops,supermarkets,tourist_facilities', 'point': {'lon': -123.314865, 'lat': 43.663692}}, {'xid': 'N4516252527', 'name': 'Rays', 'rate': 1, 'osm': 'node/4516252527', 'kinds': 'shops,supermarkets,tourist_facilities', 'point': {'lon': -123.379723, 'lat': 43.147053}}, {'xid': 'N6351041353', 'name': 'Grocery Outlet', 'rate': 1, 'osm': 'node/6351041353', 'kinds': 'shops,supermarkets,tourist_facilities', 'point': {'lon': -123.047737, 'lat': 43.799221}}, {'xid': 'W279277239', 'name': 'Walmart Supercenter', 'rate': 1, 'osm': 'way/279277239', 'kinds': 'shops,supermarkets,tourist_facilities', 'point': {'lon': -123.368828, 'lat': 43.235401}}, {'xid': 'W279425175', 'name': 'Albertsons', 'rate': 1, 'osm': 'way/279425175', 'kinds': 'shops,supermarkets,tourist_facilities', 'point': {'lon': -123.364136, 'lat': 43.239353}}, {'xid': 'W361048820', 'name': 'Safeway', 'rate': 1, 'osm': 'way/361048820', 'kinds': 'shops,supermarkets,tourist_facilities', 'point': {'lon': -123.052177, 'lat': 43.79866}}, {'xid': 'W397688340', 'name': 'Walmart Supercenter', 'rate': 1, 'osm': 'way/397688340', 'kinds': 'shops,supermarkets,tourist_facilities', 'point': {'lon': -123.043449, 'lat': 43.800167}}]