[{"xid":"W171727551","name":"Cash & Carry","rate":1,"osm":"way/171727551","kinds":"shops,supermarkets,tourist_facilities","point":{"lon":-124.051926,"lat":44.64072}},{"xid":"W369571255","name":"C&K Market","rate":1,"osm":"way/369571255","kinds":"shops,supermarkets,tourist_facilities","point":{"lon":-124.104408,"lat":44.311176}},{"xid":"W458940377","name":"Kenny's IGA","rate":1,"osm":"way/458940377","kinds":"shops,supermarkets,tourist_facilities","point":{"lon":-124.016472,"lat":44.928982}},{"xid":"W463350787","name":"Walmart Supercenter","rate":1,"osm":"way/463350787","kinds":"shops,supermarkets,tourist_facilities","point":{"lon":-124.05439,"lat":44.656605}},{"xid":"W463559880","name":"Fred Meyer","rate":1,"osm":"way/463559880","kinds":"shops,supermarkets,tourist_facilities","point":{"lon":-124.10334,"lat":44.007801}},{"xid":"N1887103831","name":"Safeway","rate":1,"osm":"node/1887103831","kinds":"shops,supermarkets,tourist_facilities","point":{"lon":-124.051979,"lat":44.65234}},{"xid":"N1910969359","name":"JC Thriftway","rate":1,"osm":"node/1910969359","kinds":"shops,supermarkets,tourist_facilities","point":{"lon":-124.053795,"lat":44.63736}},{"xid":"N3367397644","name":"Trillium Natural Foods","rate":1,"osm":"node/3367397644","kinds":"shops,supermarkets,tourist_facilities","point":{"lon":-124.012421,"lat":44.959576}},{"xid":"N4292885990","name":"Oceana Natural Foods","rate":1,"osm":"node/4292885990","kinds":"shops,supermarkets,tourist_facilities","point":{"lon":-124.050919,"lat":44.635002}},{"xid":"N6041052884","name":"McKay's Market","rate":1,"osm":"node/6041052884","kinds":"shops,supermarkets,tourist_facilities","point":{"lon":-124.015465,"lat":44.960911}},{"xid":"W199295193","name":"Grocery Outlet","rate":1,"osm":"way/199295193","kinds":"shops,supermarkets,tourist_facilities","point":{"lon":-124.004196,"lat":44.997646}},{"xid":"W171729103","name":"Grocery Outlet","rate":1,"osm":"way/171729103","kinds":"shops,supermarkets,tourist_facilities","point":{"lon":-124.054008,"lat":44.641281}},{"xid":"W171729085","name":"Fred Meyer","rate":1,"osm":"way/171729085","kinds":"shops,supermarkets,tourist_facilities","point":{"lon":-124.051025,"lat":44.651134}},{"xid":"W160780806","name":"Safeway","rate":1,"osm":"way/160780806","kinds":"shops,supermarkets,tourist_facilities","point":{"lon":-124.006363,"lat":44.997349}},{"xid":"W171729052","name":"US Market","rate":1,"osm":"way/171729052","kinds":"shops,supermarkets,tourist_facilities","point":{"lon":-124.053566,"lat":44.64806}},{"xid":"W617853531","name":"Lincoln Beach Sentry Supermarket","rate":1,"osm":"way/617853531","kinds":"shops,supermarkets,tourist_facilities","point":{"lon":-124.043388,"lat":44.849773}}]