[{'xid': 'W388942236', 'name': 'Hannaford', 'rate': 1, 'osm': 'way/388942236', 'kinds': 'shops,supermarkets,tourist_facilities', 'point': {'lon': -70.550232, 'lat': 44.555187}}, {'xid': 'W518034145', 'name': 'Hannaford', 'rate': 1, 'osm': 'way/518034145', 'kinds': 'shops,supermarkets,tourist_facilities', 'point': {'lon': -70.230072, 'lat': 44.096157}}, {'xid': 'W544568662', 'name': 'Walmart Supercenter', 'rate': 1, 'osm': 'way/544568662', 'kinds': 'shops,supermarkets,tourist_facilities', 'point': {'lon': -70.513092, 'lat': 44.172543}}, {'xid': 'W587957294', 'name': "Tranten's Groceries", 'rate': 1, 'osm': 'way/587957294', 'kinds': 'shops,supermarkets,tourist_facilities', 'point': {'lon': -70.150681, 'lat': 44.670353}}, {'xid': 'W613034658', 'name': "Shaw's", 'rate': 1, 'osm': 'way/613034658', 'kinds': 'shops,supermarkets,tourist_facilities', 'point': {'lon': -70.199883, 'lat': 44.086185}}, {'xid': 'W632999502', 'name': 'Walmart Supercenter', 'rate': 1, 'osm': 'way/632999502', 'kinds': 'shops,supermarkets,tourist_facilities', 'point': {'lon': -70.516907, 'lat': 44.538521}}, {'xid': 'W695648824', 'name': "Shaw's", 'rate': 1, 'osm': 'way/695648824', 'kinds': 'shops,supermarkets,tourist_facilities', 'point': {'lon': -70.227074, 'lat': 44.123631}}, {'xid': 'N2331530110', 'name': 'Save-A-Lot', 'rate': 1, 'osm': 'node/2331530110', 'kinds': 'shops,supermarkets,tourist_facilities', 'point': {'lon': -70.157333, 'lat': 44.62606}}, {'xid': 'N4811565081', 'name': "Edmund's Market", 'rate': 1, 'osm': 'node/4811565081', 'kinds': 'shops,supermarkets,tourist_facilities', 'point': {'lon': -70.343208, 'lat': 44.819061}}, {'xid': 'N4861972118', 'name': "Tranten's", 'rate': 1, 'osm': 'node/4861972118', 'kinds': 'shops,supermarkets,tourist_facilities', 'point': {'lon': -70.150787, 'lat': 44.670315}}, {'xid': 'N5045490724', 'name': 'Nasri Grocery Store', 'rate': 1, 'osm': 'node/5045490724', 'kinds': 'shops,supermarkets,tourist_facilities', 'point': {'lon': -70.216965, 'lat': 44.099335}}, {'xid': 'N6033247361', 'name': 'Hannaford', 'rate': 1, 'osm': 'node/6033247361', 'kinds': 'shops,supermarkets,tourist_facilities', 'point': {'lon': -70.179077, 'lat': 44.103909}}, {'xid': 'W207945904', 'name': "Shop 'n Save", 'rate': 1, 'osm': 'way/207945904', 'kinds': 'shops,supermarkets,tourist_facilities', 'point': {'lon': -70.789886, 'lat': 44.406815}}, {'xid': 'W621795461', 'name': 'Hannaford', 'rate': 1, 'osm': 'way/621795461', 'kinds': 'shops,supermarkets,tourist_facilities', 'point': {'lon': -70.702896, 'lat': 44.045731}}, {'xid': 'W360417755', 'name': 'Walmart Supercenter', 'rate': 1, 'osm': 'way/360417755', 'kinds': 'shops,supermarkets,tourist_facilities', 'point': {'lon': -70.238266, 'lat': 44.117733}}, {'xid': 'W706737182', 'name': 'Save-A-Lot', 'rate': 1, 'osm': 'way/706737182', 'kinds': 'shops,supermarkets,tourist_facilities', 'point': {'lon': -70.204895, 'lat': 44.085972}}, {'xid': 'N5064746265', 'name': 'IGA', 'rate': 1, 'osm': 'node/5064746265', 'kinds': 'shops,supermarkets,tourist_facilities', 'point': {'lon': -70.637733, 'lat': 44.954403}}, {'xid': 'N5481176814', 'name': "Wallingford's Fruit House", 'rate': 1, 'osm': 'node/5481176814', 'kinds': 'shops,supermarkets,tourist_facilities', 'point': {'lon': -70.291756, 'lat': 44.140205}}, {'xid': 'N5635568041', 'name': "Gowell's Shop & Save", 'rate': 1, 'osm': 'node/5635568041', 'kinds': 'shops,supermarkets,tourist_facilities', 'point': {'lon': -70.162376, 'lat': 44.184456}}, {'xid': 'W379678675', 'name': 'Hannaford', 'rate': 1, 'osm': 'way/379678675', 'kinds': 'shops,supermarkets,tourist_facilities', 'point': {'lon': -70.151321, 'lat': 44.650883}}, {'xid': 'W403741063', 'name': 'Red Hill Natural Foods', 'rate': 1, 'osm': 'way/403741063', 'kinds': 'shops,supermarkets,tourist_facilities', 'point': {'lon': -70.548012, 'lat': 44.550835}}, {'xid': 'W544340720', 'name': 'Walmart Supercenter', 'rate': 1, 'osm': 'way/544340720', 'kinds': 'shops,supermarkets,tourist_facilities', 'point': {'lon': -70.158821, 'lat': 44.630543}}, {'xid': 'W611658928', 'name': 'Gohen Super Market', 'rate': 1, 'osm': 'way/611658928', 'kinds': 'shops,supermarkets,tourist_facilities', 'point': {'lon': -70.219032, 'lat': 44.092102}}]