[{"xid":"W322303497","name":"Lunds & Byerlys","rate":2,"osm":"way/322303497","wikidata":"Q6704067","kinds":"shops,supermarkets,tourist_facilities","point":{"lon":-93.299889,"lat":44.948593}},{"xid":"W45680453","name":"Lunds & Byerlys","rate":2,"osm":"way/45680453","wikidata":"Q19903424","kinds":"shops,supermarkets,tourist_facilities","point":{"lon":-93.280548,"lat":44.97438}},{"xid":"W159453350","name":"El Burrito Mercado","rate":1,"osm":"way/159453350","kinds":"shops,supermarkets,tourist_facilities","point":{"lon":-93.077507,"lat":44.929935}},{"xid":"W186939896","name":"Lunds & Byerlys","rate":1,"osm":"way/186939896","kinds":"shops,supermarkets,tourist_facilities","point":{"lon":-93.270218,"lat":44.738586}},{"xid":"W199282376","name":"Maryland Supermarket","rate":1,"osm":"way/199282376","kinds":"shops,supermarkets,tourist_facilities","point":{"lon":-93.119171,"lat":44.977093}},{"xid":"W199755607","name":"Cub Foods","rate":1,"osm":"way/199755607","kinds":"shops,supermarkets,tourist_facilities","point":{"lon":-93.274956,"lat":44.77726}},{"xid":"W208898199","name":"Valley Foods","rate":1,"osm":"way/208898199","kinds":"shops,supermarkets,tourist_facilities","point":{"lon":-93.249115,"lat":44.754551}},{"xid":"W216253298","name":"ALDI","rate":1,"osm":"way/216253298","kinds":"shops,supermarkets,tourist_facilities","point":{"lon":-93.254456,"lat":44.785641}},{"xid":"W238264170","name":"EconoFoods","rate":1,"osm":"way/238264170","kinds":"shops,supermarkets,tourist_facilities","point":{"lon":-93.917976,"lat":44.774216}},{"xid":"W243119333","name":"Cooper's SuperValu","rate":1,"osm":"way/243119333","kinds":"shops,supermarkets,tourist_facilities","point":{"lon":-93.116859,"lat":44.934719}},{"xid":"W264603140","name":"Walmart Supercenter","rate":1,"osm":"way/264603140","kinds":"shops,supermarkets,tourist_facilities","point":{"lon":-93.510025,"lat":44.097366}},{"xid":"W295287478","name":"Cub Foods","rate":1,"osm":"way/295287478","kinds":"shops,supermarkets,tourist_facilities","point":{"lon":-93.187309,"lat":44.432484}},{"xid":"W304700100","name":"Lunds & Byerlys","rate":1,"osm":"way/304700100","kinds":"shops,supermarkets,tourist_facilities","point":{"lon":-93.328072,"lat":44.873539}},{"xid":"W353148508","name":"Just Foods","rate":1,"osm":"way/353148508","kinds":"shops,supermarkets,tourist_facilities","point":{"lon":-93.162178,"lat":44.454411}},{"xid":"W356342297","name":"Cub","rate":1,"osm":"way/356342297","kinds":"shops,supermarkets,tourist_facilities","point":{"lon":-93.044777,"lat":44.976406}},{"xid":"W451656908","name":"Cub Foods","rate":1,"osm":"way/451656908","kinds":"shops,supermarkets,tourist_facilities","point":{"lon":-93.041145,"lat":44.835476}},{"xid":"W486838485","name":"Oxendale's Market (formerly R.C. Dicks)","rate":1,"osm":"way/486838485","kinds":"shops,supermarkets,tourist_facilities","point":{"lon":-93.10083,"lat":44.91581}},{"xid":"W515404697","name":"Kowalski's Market","rate":1,"osm":"way/515404697","kinds":"shops,supermarkets,tourist_facilities","point":{"lon":-93.186188,"lat":44.803158}},{"xid":"W516096598","name":"Hy-Vee","rate":1,"osm":"way/516096598","kinds":"shops,supermarkets,tourist_facilities","point":{"lon":-93.173309,"lat":44.715115}},{"xid":"W525974480","name":"ALDI","rate":1,"osm":"way/525974480","kinds":"shops,supermarkets,tourist_facilities","point":{"lon":-93.2575,"lat":44.096233}},{"xid":"W584464025","name":"Saint Peter Co-op & Deli","rate":1,"osm":"way/584464025","kinds":"shops,supermarkets,tourist_facilities","point":{"lon":-93.960083,"lat":44.322662}},{"xid":"W605344811","name":"East Side Grocery","rate":1,"osm":"way/605344811","kinds":"shops,supermarkets,tourist_facilities","point":{"lon":-93.073784,"lat":44.968868}},{"xid":"W607969797","name":"Malaya Grocery","rate":1,"osm":"way/607969797","kinds":"shops,supermarkets,tourist_facilities","point":{"lon":-93.106239,"lat":44.980812}},{"xid":"W640343737","name":"Ha Tien Super Market","rate":1,"osm":"way/640343737","kinds":"shops,supermarkets,tourist_facilities","point":{"lon":-93.01799,"lat":44.950455}},{"xid":"W696221535","name":"Aldi","rate":1,"osm":"way/696221535","kinds":"shops,supermarkets,tourist_facilities","point":{"lon":-93.535278,"lat":44.861588}},{"xid":"W696885444","name":"Groceries of the Orient","rate":1,"osm":"way/696885444","kinds":"shops,supermarkets,tourist_facilities","point":{"lon":-93.288887,"lat":44.866432}},{"xid":"N459991084","name":"Rainbow Foods","rate":1,"osm":"node/459991084","kinds":"shops,supermarkets,tourist_facilities","point":{"lon":-93.219566,"lat":44.729866}},{"xid":"N489170740","name":"Lunds & Byerlys","rate":1,"osm":"node/489170740","kinds":"shops,supermarkets,tourist_facilities","point":{"lon":-93.190842,"lat":44.917}},{"xid":"N496278582","name":"Rainbow Foods","rate":1,"osm":"node/496278582","kinds":"shops,supermarkets,tourist_facilities","point":{"lon":-93.28125,"lat":44.692268}},{"xid":"N542893740","name":"Jubliee","rate":1,"osm":"node/542893740","kinds":"shops,supermarkets,tourist_facilities","point":{"lon":-93.668037,"lat":44.938934}},{"xid":"N546277193","name":"Cub Foods","rate":1,"osm":"node/546277193","kinds":"shops,supermarkets,tourist_facilities","point":{"lon":-93.319824,"lat":44.88036}},{"xid":"N571153113","name":"Kowalski's Uptown Market","rate":1,"osm":"node/571153113","kinds":"shops,supermarkets,tourist_facilities","point":{"lon":-93.296051,"lat":44.957878}},{"xid":"N577477446","name":"TargetExpress","rate":1,"osm":"node/577477446","kinds":"shops,supermarkets,tourist_facilities","point":{"lon":-93.188255,"lat":44.917557}},{"xid":"N583334386","name":"Cub Foods","rate":1,"osm":"node/583334386","kinds":"shops,supermarkets,tourist_facilities","point":{"lon":-93.330826,"lat":44.812378}},{"xid":"N601517826","name":"Lunds & Byerlys","rate":1,"osm":"node/601517826","kinds":"shops,supermarkets,tourist_facilities","point":{"lon":-93.425858,"lat":44.933914}},{"xid":"N650857696","name":"Lunds & Byerlys","rate":1,"osm":"node/650857696","kinds":"shops,supermarkets,tourist_facilities","point":{"lon":-93.445953,"lat":44.968147}},{"xid":"N663874347","name":"Lunds & Byerlys","rate":1,"osm":"node/663874347","kinds":"shops,supermarkets,tourist_facilities","point":{"lon":-93.500221,"lat":44.972439}},{"xid":"N697900788","name":"Cub Foods","rate":1,"osm":"node/697900788","kinds":"shops,supermarkets,tourist_facilities","point":{"lon":-93.581558,"lat":44.893242}},{"xid":"N743038536","name":"Cub Foods","rate":1,"osm":"node/743038536","kinds":"shops,supermarkets,tourist_facilities","point":{"lon":-93.082924,"lat":44.885326}},{"xid":"N923857246","name":"Lakewinds Natural Foods","rate":1,"osm":"node/923857246","kinds":"shops,supermarkets,tourist_facilities","point":{"lon":-93.500732,"lat":44.941307}},{"xid":"N942900532","name":"Hy-Vee","rate":1,"osm":"node/942900532","kinds":"shops,supermarkets,tourist_facilities","point":{"lon":-93.944901,"lat":44.171585}},{"xid":"N992088038","name":"Rivertown Market","rate":1,"osm":"node/992088038","kinds":"shops,supermarkets,tourist_facilities","point":{"lon":-93.096512,"lat":44.947521}},{"xid":"N1188081611","name":"Jerry's Foods","rate":1,"osm":"node/1188081611","kinds":"shops,supermarkets,tourist_facilities","point":{"lon":-93.400574,"lat":44.835464}},{"xid":"N1344179508","name":"Hy-Vee","rate":1,"osm":"node/1344179508","kinds":"shops,supermarkets,tourist_facilities","point":{"lon":-93.29715,"lat":44.295242}},{"xid":"N1584945866","name":"Festival Foods","rate":1,"osm":"node/1584945866","kinds":"shops,supermarkets,tourist_facilities","point":{"lon":-93.285744,"lat":44.824871}},{"xid":"N1669120365","name":"Cooper's Supervalu","rate":1,"osm":"node/1669120365","kinds":"shops,supermarkets,tourist_facilities","point":{"lon":-93.170731,"lat":44.902214}},{"xid":"N1922482372","name":"Fareway","rate":1,"osm":"node/1922482372","kinds":"shops,supermarkets,tourist_facilities","point":{"lon":-93.272339,"lat":44.295509}},{"xid":"N1986875392","name":"Cub Foods","rate":1,"osm":"node/1986875392","kinds":"shops,supermarkets,tourist_facilities","point":{"lon":-93.216621,"lat":44.726715}},{"xid":"N1987270958","name":"Aldi","rate":1,"osm":"node/1987270958","kinds":"shops,supermarkets,tourist_facilities","point":{"lon":-93.128868,"lat":44.732353}},{"xid":"N2177460989","name":"Trader Joe's","rate":1,"osm":"node/2177460989","kinds":"shops,supermarkets,tourist_facilities","point":{"lon":-93.332367,"lat":44.859188}},{"xid":"N2465177883","name":"Whole Foods Market","rate":1,"osm":"node/2465177883","kinds":"shops,supermarkets,tourist_facilities","point":{"lon":-93.269043,"lat":44.982479}},{"xid":"N2471132664","name":"Kim's Oriental Market","rate":1,"osm":"node/2471132664","kinds":"shops,supermarkets,tourist_facilities","point":{"lon":-93.167336,"lat":44.961849}},{"xid":"N2684462056","name":"Lunds & Byerlys","rate":1,"osm":"node/2684462056","kinds":"shops,supermarkets,tourist_facilities","point":{"lon":-93.095055,"lat":44.951412}},{"xid":"N2806217603","name":"Sun Foods","rate":1,"osm":"node/2806217603","kinds":"shops,supermarkets,tourist_facilities","point":{"lon":-93.123802,"lat":44.954887}},{"xid":"N2969167150","name":"Target","rate":1,"osm":"node/2969167150","kinds":"shops,supermarkets,tourist_facilities","point":{"lon":-93.185417,"lat":44.433628}},{"xid":"N3163641345","name":"Cub Foods","rate":1,"osm":"node/3163641345","kinds":"shops,supermarkets,tourist_facilities","point":{"lon":-93.277245,"lat":44.895252}},{"xid":"N3230873864","name":"Whole Foods Market","rate":1,"osm":"node/3230873864","kinds":"shops,supermarkets,tourist_facilities","point":{"lon":-93.322205,"lat":44.947788}},{"xid":"N3567660621","name":"Trader Joe's","rate":1,"osm":"node/3567660621","kinds":"shops,supermarkets,tourist_facilities","point":{"lon":-93.422745,"lat":44.97364}},{"xid":"N4177442489","name":"Cub Foods","rate":1,"osm":"node/4177442489","kinds":"shops,supermarkets,tourist_facilities","point":{"lon":-93.142395,"lat":44.730438}},{"xid":"N4330096789","name":"Aldi","rate":1,"osm":"node/4330096789","kinds":"shops,supermarkets,tourist_facilities","point":{"lon":-93.392532,"lat":44.937691}},{"xid":"N4413798289","name":"Walmart","rate":1,"osm":"node/4413798289","kinds":"shops,supermarkets,tourist_facilities","point":{"lon":-93.43261,"lat":44.856106}},{"xid":"N4443137561","name":"Knowlan's Market","rate":1,"osm":"node/4443137561","kinds":"shops,supermarkets,tourist_facilities","point":{"lon":-93.049316,"lat":44.888313}},{"xid":"N4540038691","name":"Cub Foods","rate":1,"osm":"node/4540038691","kinds":"shops,supermarkets,tourist_facilities","point":{"lon":-93.377869,"lat":44.748623}},{"xid":"N4540080989","name":"Fresh Thyme Farmers Market","rate":1,"osm":"node/4540080989","kinds":"shops,supermarkets,tourist_facilities","point":{"lon":-93.382362,"lat":44.748421}},{"xid":"N4617420633","name":"M & M Grocery Store","rate":1,"osm":"node/4617420633","kinds":"shops,supermarkets,tourist_facilities","point":{"lon":-93.277626,"lat":44.961571}},{"xid":"N4621509972","name":"Shuang Hur Supermarket","rate":1,"osm":"node/4621509972","kinds":"shops,supermarkets,tourist_facilities","point":{"lon":-93.278107,"lat":44.953266}},{"xid":"N4627115929","name":"Nicollet Halal Market","rate":1,"osm":"node/4627115929","kinds":"shops,supermarkets,tourist_facilities","point":{"lon":-93.277496,"lat":44.951565}},{"xid":"N5145566769","name":"Whole Foods Market","rate":1,"osm":"node/5145566769","kinds":"shops,supermarkets,tourist_facilities","point":{"lon":-93.166725,"lat":44.946739}},{"xid":"N5218917411","name":"Tone Music","rate":1,"osm":"node/5218917411","kinds":"shops,supermarkets,tourist_facilities","point":{"lon":-93.22628,"lat":44.085384}},{"xid":"N5238786292","name":"Aldi","rate":1,"osm":"node/5238786292","kinds":"shops,supermarkets,tourist_facilities","point":{"lon":-93.192055,"lat":44.429981}},{"xid":"N5266534186","name":"Family Fresh Market","rate":1,"osm":"node/5266534186","kinds":"shops,supermarkets,tourist_facilities","point":{"lon":-93.960678,"lat":44.321625}},{"xid":"N5266543335","name":"Saint Peter Food Co-Op","rate":1,"osm":"node/5266543335","kinds":"shops,supermarkets,tourist_facilities","point":{"lon":-93.960037,"lat":44.32267}},{"xid":"N5334193693","name":"Cub Foods","rate":1,"osm":"node/5334193693","kinds":"shops,supermarkets,tourist_facilities","point":{"lon":-93.293762,"lat":44.949673}},{"xid":"N5545969740","name":"Fresh Thyme","rate":1,"osm":"node/5545969740","kinds":"shops,supermarkets,tourist_facilities","point":{"lon":-93.21405,"lat":44.970814}},{"xid":"N5739990693","name":"Original Karen Market","rate":1,"osm":"node/5739990693","kinds":"shops,supermarkets,tourist_facilities","point":{"lon":-93.066406,"lat":44.982742}},{"xid":"N5760712987","name":"Mini Super La Chiquis","rate":1,"osm":"node/5760712987","kinds":"shops,supermarkets,tourist_facilities","point":{"lon":-93.105759,"lat":44.981293}},{"xid":"N5760712935","name":"Double Dragon Foods","rate":1,"osm":"node/5760712935","kinds":"shops,supermarkets,tourist_facilities","point":{"lon":-93.10527,"lat":44.977886}},{"xid":"N5859974970","name":"Trader Joe's","rate":1,"osm":"node/5859974970","kinds":"shops,supermarkets,tourist_facilities","point":{"lon":-93.257721,"lat":44.977062}},{"xid":"N6267046584","name":"Superior Eco Markets","rate":1,"osm":"node/6267046584","kinds":"shops,supermarkets,tourist_facilities","point":{"lon":-93.196548,"lat":44.969711}},{"xid":"N6267169342","name":"Premier Food Products, Inc.","rate":1,"osm":"node/6267169342","kinds":"shops,supermarkets,tourist_facilities","point":{"lon":-93.18856,"lat":44.966263}},{"xid":"N6384108627","name":"Kowalski's Market","rate":1,"osm":"node/6384108627","kinds":"shops,supermarkets,tourist_facilities","point":{"lon":-93.569572,"lat":44.900692}},{"xid":"N6468046270","name":"Cub Foods","rate":1,"osm":"node/6468046270","kinds":"shops,supermarkets,tourist_facilities","point":{"lon":-93.215858,"lat":44.919163}},{"xid":"N6566621924","name":"Fresh Thyme","rate":1,"osm":"node/6566621924","kinds":"shops,supermarkets,tourist_facilities","point":{"lon":-93.342659,"lat":44.932713}},{"xid":"W46428727","name":"Cub Foods","rate":1,"osm":"way/46428727","kinds":"shops,supermarkets,tourist_facilities","point":{"lon":-93.501373,"lat":44.915878}},{"xid":"W605053990","name":"Bymore Supermercado","rate":1,"osm":"way/605053990","kinds":"shops,supermarkets,tourist_facilities","point":{"lon":-93.073914,"lat":44.967175}},{"xid":"W45905791","name":"Super USA","rate":1,"osm":"way/45905791","kinds":"shops,supermarkets,tourist_facilities","point":{"lon":-93.202759,"lat":44.991291}},{"xid":"W56541620","name":"Cub Foods","rate":1,"osm":"way/56541620","kinds":"shops,supermarkets,tourist_facilities","point":{"lon":-93.160835,"lat":44.952641}},{"xid":"W194030654","name":"Jerry's Foods","rate":1,"osm":"way/194030654","kinds":"shops,supermarkets,tourist_facilities","point":{"lon":-93.354507,"lat":44.910015}},{"xid":"W257220931","name":"Walmart Supercenter","rate":1,"osm":"way/257220931","kinds":"shops,supermarkets,tourist_facilities","point":{"lon":-93.297112,"lat":44.650318}},{"xid":"W264258501","name":"Shopko Hometown","rate":1,"osm":"way/264258501","kinds":"shops,supermarkets,tourist_facilities","point":{"lon":-93.562561,"lat":44.541992}},{"xid":"W39525599","name":"Lunds & Byerlys","rate":1,"osm":"way/39525599","kinds":"shops,supermarkets,tourist_facilities","point":{"lon":-93.442627,"lat":44.865059}},{"xid":"N544134752","name":"Cub Foods","rate":1,"osm":"node/544134752","kinds":"shops,supermarkets,tourist_facilities","point":{"lon":-93.150597,"lat":44.993568}},{"xid":"N544270122","name":"Trader Joe's","rate":1,"osm":"node/544270122","kinds":"shops,supermarkets,tourist_facilities","point":{"lon":-93.337463,"lat":44.934475}},{"xid":"N2140778720","name":"Aldi","rate":1,"osm":"node/2140778720","kinds":"shops,supermarkets,tourist_facilities","point":{"lon":-93.419327,"lat":44.952671}},{"xid":"N2616822946","name":"Lunds & Byerlys","rate":1,"osm":"node/2616822946","kinds":"shops,supermarkets,tourist_facilities","point":{"lon":-93.42878,"lat":44.706581}},{"xid":"W32405886","name":"Walmart","rate":1,"osm":"way/32405886","kinds":"shops,supermarkets,tourist_facilities","point":{"lon":-93.040382,"lat":44.816647}},{"xid":"W39929247","name":"Cub Foods","rate":1,"osm":"way/39929247","kinds":"shops,supermarkets,tourist_facilities","point":{"lon":-93.509621,"lat":44.779842}},{"xid":"W52094601","name":"Cub Foods","rate":1,"osm":"way/52094601","kinds":"shops,supermarkets,tourist_facilities","point":{"lon":-93.421219,"lat":44.859047}},{"xid":"W92926385","name":"Cub Foods","rate":1,"osm":"way/92926385","kinds":"shops,supermarkets,tourist_facilities","point":{"lon":-93.160522,"lat":44.831612}},{"xid":"W122889484","name":"Korte's","rate":1,"osm":"way/122889484","kinds":"shops,supermarkets,tourist_facilities","point":{"lon":-93.156242,"lat":44.926682}},{"xid":"W124766601","name":"Cub Foods","rate":1,"osm":"way/124766601","kinds":"shops,supermarkets,tourist_facilities","point":{"lon":-93.064331,"lat":44.968071}},{"xid":"W124869978","name":"Walmart Supercenter","rate":1,"osm":"way/124869978","kinds":"shops,supermarkets,tourist_facilities","point":{"lon":-93.224609,"lat":44.734421}},{"xid":"W233831410","name":"Walmart Supercenter","rate":1,"osm":"way/233831410","kinds":"shops,supermarkets,tourist_facilities","point":{"lon":-93.24968,"lat":44.097904}},{"xid":"W435164431","name":"Cub Foods","rate":1,"osm":"way/435164431","kinds":"shops,supermarkets,tourist_facilities","point":{"lon":-93.383308,"lat":44.93771}},{"xid":"W527738072","name":"Cub Foods","rate":1,"osm":"way/527738072","kinds":"shops,supermarkets,tourist_facilities","point":{"lon":-93.141388,"lat":44.803974}},{"xid":"W605096362","name":"52 Market & Trading","rate":1,"osm":"way/605096362","kinds":"shops,supermarkets,tourist_facilities","point":{"lon":-93.065666,"lat":44.971024}},{"xid":"W605096372","name":"Bingo Oriental Market","rate":1,"osm":"way/605096372","kinds":"shops,supermarkets,tourist_facilities","point":{"lon":-93.065704,"lat":44.969952}},{"xid":"W43287562","name":"Lunds & Byerlys","rate":1,"osm":"way/43287562","kinds":"shops,supermarkets,tourist_facilities","point":{"lon":-93.346718,"lat":44.934998}},{"xid":"W45581776","name":"Wedge Co-Op","rate":1,"osm":"way/45581776","kinds":"shops,supermarkets,tourist_facilities","point":{"lon":-93.28759,"lat":44.961361}},{"xid":"W46145189","name":"Seward Community Co-op","rate":1,"osm":"way/46145189","kinds":"shops,supermarkets,tourist_facilities","point":{"lon":-93.23027,"lat":44.962399}},{"xid":"W47586785","name":"Whole Foods Market","rate":1,"osm":"way/47586785","kinds":"shops,supermarkets,tourist_facilities","point":{"lon":-93.328102,"lat":44.867767}},{"xid":"W50080929","name":"Bergan's SuperValu","rate":1,"osm":"way/50080929","kinds":"shops,supermarkets,tourist_facilities","point":{"lon":-93.246925,"lat":44.917023}},{"xid":"W80751585","name":"Kowalski's Market","rate":1,"osm":"way/80751585","kinds":"shops,supermarkets,tourist_facilities","point":{"lon":-93.287819,"lat":44.905746}},{"xid":"W80889050","name":"Walmart Supercenter","rate":1,"osm":"way/80889050","kinds":"shops,supermarkets,tourist_facilities","point":{"lon":-93.950737,"lat":44.163708}},{"xid":"W89180882","name":"Cub Foods","rate":1,"osm":"way/89180882","kinds":"shops,supermarkets,tourist_facilities","point":{"lon":-93.300629,"lat":44.747871}},{"xid":"W92926390","name":"Walmart","rate":1,"osm":"way/92926390","kinds":"shops,supermarkets,tourist_facilities","point":{"lon":-93.161865,"lat":44.828465}},{"xid":"W119878072","name":"Walmart Supercenter","rate":1,"osm":"way/119878072","kinds":"shops,supermarkets,tourist_facilities","point":{"lon":-93.077499,"lat":44.897095}},{"xid":"W129464238","name":"Mississippi Market Natural Foods Co-Op","rate":1,"osm":"way/129464238","kinds":"shops,supermarkets,tourist_facilities","point":{"lon":-93.12664,"lat":44.946362}},{"xid":"W134240889","name":"Super Target","rate":1,"osm":"way/134240889","kinds":"shops,supermarkets,tourist_facilities","point":{"lon":-93.174934,"lat":44.723801}},{"xid":"W167009790","name":"Cub Foods","rate":1,"osm":"way/167009790","kinds":"shops,supermarkets,tourist_facilities","point":{"lon":-93.348801,"lat":44.968212}},{"xid":"W180771966","name":"(CLOSED) Victorias Market","rate":1,"osm":"way/180771966","kinds":"shops,supermarkets,tourist_facilities","point":{"lon":-93.660759,"lat":44.859234}},{"xid":"W202864465","name":"Oxendale's Market","rate":1,"osm":"way/202864465","kinds":"shops,supermarkets,tourist_facilities","point":{"lon":-93.222473,"lat":44.911602}},{"xid":"W203150859","name":"Super Target","rate":1,"osm":"way/203150859","kinds":"shops,supermarkets,tourist_facilities","point":{"lon":-93.291275,"lat":44.684326}},{"xid":"W208502347","name":"Family Fresh Market","rate":1,"osm":"way/208502347","kinds":"shops,supermarkets,tourist_facilities","point":{"lon":-93.147957,"lat":44.641273}},{"xid":"W313860145","name":"Seward Community Co-op Friendship Store","rate":1,"osm":"way/313860145","kinds":"shops,supermarkets,tourist_facilities","point":{"lon":-93.271835,"lat":44.933922}},{"xid":"W403113035","name":"Coborn's Superstore","rate":1,"osm":"way/403113035","kinds":"shops,supermarkets,tourist_facilities","point":{"lon":-93.74646,"lat":44.621792}},{"xid":"W407447717","name":"Aldi","rate":1,"osm":"way/407447717","kinds":"shops,supermarkets,tourist_facilities","point":{"lon":-93.353607,"lat":44.745636}},{"xid":"W411378746","name":"Driskill's Food","rate":1,"osm":"way/411378746","kinds":"shops,supermarkets,tourist_facilities","point":{"lon":-93.413445,"lat":44.92548}},{"xid":"W446187339","name":"Mackenthun's Fine Foods","rate":1,"osm":"way/446187339","kinds":"shops,supermarkets,tourist_facilities","point":{"lon":-93.41848,"lat":44.48119}},{"xid":"W480968392","name":"Cub Foods","rate":1,"osm":"way/480968392","kinds":"shops,supermarkets,tourist_facilities","point":{"lon":-93.142395,"lat":44.730114}},{"xid":"W544923865","name":"Hyvee","rate":1,"osm":"way/544923865","kinds":"shops,supermarkets,tourist_facilities","point":{"lon":-93.356949,"lat":44.748055}},{"xid":"W605096325","name":"Hoa Mei Market","rate":1,"osm":"way/605096325","kinds":"shops,supermarkets,tourist_facilities","point":{"lon":-93.064217,"lat":44.977261}},{"xid":"W607969818","name":"Nepali Market","rate":1,"osm":"way/607969818","kinds":"shops,supermarkets,tourist_facilities","point":{"lon":-93.106216,"lat":44.984055}},{"xid":"N460005315","name":"Lunds & Byerlys","rate":1,"osm":"node/460005315","kinds":"shops,supermarkets,tourist_facilities","point":{"lon":-93.158501,"lat":44.836178}},{"xid":"N496278587","name":"Cub Foods","rate":1,"osm":"node/496278587","kinds":"shops,supermarkets,tourist_facilities","point":{"lon":-93.215263,"lat":44.692612}},{"xid":"N496278584","name":"Cub Foods","rate":1,"osm":"node/496278584","kinds":"shops,supermarkets,tourist_facilities","point":{"lon":-93.251747,"lat":44.65884}},{"xid":"N530282293","name":"Super Target","rate":1,"osm":"node/530282293","kinds":"shops,supermarkets,tourist_facilities","point":{"lon":-93.377319,"lat":44.743977}},{"xid":"N646306779","name":"United Noodle","rate":1,"osm":"node/646306779","kinds":"shops,supermarkets,tourist_facilities","point":{"lon":-93.242203,"lat":44.957836}},{"xid":"N647090276","name":"Lunds & Byerlys","rate":1,"osm":"node/647090276","kinds":"shops,supermarkets,tourist_facilities","point":{"lon":-93.255188,"lat":44.987328}},{"xid":"N670883082","name":"Fresh Seasons Market","rate":1,"osm":"node/670883082","kinds":"shops,supermarkets,tourist_facilities","point":{"lon":-93.463776,"lat":44.906288}},{"xid":"N777804103","name":"Aldi","rate":1,"osm":"node/777804103","kinds":"shops,supermarkets,tourist_facilities","point":{"lon":-93.241928,"lat":44.948605}},{"xid":"N1188577437","name":"Cooper's","rate":1,"osm":"node/1188577437","kinds":"shops,supermarkets,tourist_facilities","point":{"lon":-93.60041,"lat":44.791618}},{"xid":"N1337853078","name":"Marketplace Foods","rate":1,"osm":"node/1337853078","kinds":"shops,supermarkets,tourist_facilities","point":{"lon":-93.848572,"lat":44.961037}},{"xid":"N1344114577","name":"Hy-Vee","rate":1,"osm":"node/1344114577","kinds":"shops,supermarkets,tourist_facilities","point":{"lon":-93.228508,"lat":44.067318}},{"xid":"N1565910628","name":"Golden Harvest Food","rate":1,"osm":"node/1565910628","kinds":"shops,supermarkets,tourist_facilities","point":{"lon":-93.062607,"lat":44.977306}},{"xid":"N2006868079","name":"Rearn Thai Market","rate":1,"osm":"node/2006868079","kinds":"shops,supermarkets,tourist_facilities","point":{"lon":-93.261826,"lat":44.738964}},{"xid":"N3121346587","name":"Whole Foods Market","rate":1,"osm":"node/3121346587","kinds":"shops,supermarkets,tourist_facilities","point":{"lon":-93.445404,"lat":44.974113}},{"xid":"N4617420647","name":"Hark's Food Market","rate":1,"osm":"node/4617420647","kinds":"shops,supermarkets,tourist_facilities","point":{"lon":-93.277657,"lat":44.959099}},{"xid":"N4617523584","name":"Truong Thanh Grocery Store","rate":1,"osm":"node/4617523584","kinds":"shops,supermarkets,tourist_facilities","point":{"lon":-93.278084,"lat":44.956573}},{"xid":"N4619841621","name":"Dai Loi Oriental Grocery, Inc.","rate":1,"osm":"node/4619841621","kinds":"shops,supermarkets,tourist_facilities","point":{"lon":-93.277695,"lat":44.954311}},{"xid":"N4714492474","name":"Bymore","rate":1,"osm":"node/4714492474","kinds":"shops,supermarkets,tourist_facilities","point":{"lon":-93.073799,"lat":44.96719}},{"xid":"N4714501853","name":"Chi-Town Grill","rate":1,"osm":"node/4714501853","kinds":"shops,supermarkets,tourist_facilities","point":{"lon":-93.076294,"lat":44.977547}},{"xid":"N5405548842","name":"Hampden Park Co-op","rate":1,"osm":"node/5405548842","kinds":"shops,supermarkets,tourist_facilities","point":{"lon":-93.197723,"lat":44.969097}},{"xid":"N5755193630","name":"Hy-Vee","rate":1,"osm":"node/5755193630","kinds":"shops,supermarkets,tourist_facilities","point":{"lon":-93.538345,"lat":44.778702}},{"xid":"N6134921492","name":"Aldi","rate":1,"osm":"node/6134921492","kinds":"shops,supermarkets,tourist_facilities","point":{"lon":-93.232887,"lat":44.94936}},{"xid":"W42745186","name":"Target","rate":1,"osm":"way/42745186","kinds":"shops,supermarkets,tourist_facilities","point":{"lon":-93.601212,"lat":44.827396}},{"xid":"W42850157","name":"Lunds & Byerlys","rate":1,"osm":"way/42850157","kinds":"shops,supermarkets,tourist_facilities","point":{"lon":-93.541382,"lat":44.863728}},{"xid":"W43324016","name":"Lunds & Byerlys","rate":1,"osm":"way/43324016","kinds":"shops,supermarkets,tourist_facilities","point":{"lon":-93.330856,"lat":44.911728}},{"xid":"W80889045","name":"Cub Foods","rate":1,"osm":"way/80889045","kinds":"shops,supermarkets,tourist_facilities","point":{"lon":-93.955315,"lat":44.168755}},{"xid":"W96324496","name":"Mississippi Market Natural Foods Co-op","rate":1,"osm":"way/96324496","kinds":"shops,supermarkets,tourist_facilities","point":{"lon":-93.140114,"lat":44.918343}},{"xid":"W102079830","name":"Linden Hills Co-op","rate":1,"osm":"way/102079830","kinds":"shops,supermarkets,tourist_facilities","point":{"lon":-93.32856,"lat":44.922012}},{"xid":"W102754121","name":"Widmers","rate":1,"osm":"way/102754121","kinds":"shops,supermarkets,tourist_facilities","point":{"lon":-93.182068,"lat":44.934113}},{"xid":"W118936712","name":"Shuang Hur Supermarket","rate":1,"osm":"way/118936712","kinds":"shops,supermarkets,tourist_facilities","point":{"lon":-93.127953,"lat":44.955406}},{"xid":"W124147014","name":"Trader Joe's","rate":1,"osm":"way/124147014","kinds":"shops,supermarkets,tourist_facilities","point":{"lon":-93.14592,"lat":44.926678}},{"xid":"W124803643","name":"Walmart Supercenter","rate":1,"osm":"way/124803643","kinds":"shops,supermarkets,tourist_facilities","point":{"lon":-93.26561,"lat":44.860878}},{"xid":"W129844830","name":"88 Oriental Foods","rate":1,"osm":"way/129844830","kinds":"shops,supermarkets,tourist_facilities","point":{"lon":-93.112213,"lat":44.956158}},{"xid":"W132662549","name":"Fishman's Kosher Market","rate":1,"osm":"way/132662549","kinds":"shops,supermarkets,tourist_facilities","point":{"lon":-93.331909,"lat":44.948727}},{"xid":"W135906532","name":"Sam's Club","rate":1,"osm":"way/135906532","kinds":"shops,supermarkets,tourist_facilities","point":{"lon":-93.152992,"lat":44.845062}},{"xid":"W152586863","name":"Aldi","rate":1,"osm":"way/152586863","kinds":"shops,supermarkets,tourist_facilities","point":{"lon":-93.148552,"lat":44.955387}},{"xid":"W157489493","name":"Tim & Tom's Speedy Market, Inc.","rate":1,"osm":"way/157489493","kinds":"shops,supermarkets,tourist_facilities","point":{"lon":-93.196297,"lat":44.982498}},{"xid":"W169500750","name":"Walmart Supercenter","rate":1,"osm":"way/169500750","kinds":"shops,supermarkets,tourist_facilities","point":{"lon":-93.306,"lat":44.289982}},{"xid":"W183326633","name":"Kowalski's","rate":1,"osm":"way/183326633","kinds":"shops,supermarkets,tourist_facilities","point":{"lon":-93.262321,"lat":44.901012}},{"xid":"W258335157","name":"Coborns","rate":1,"osm":"way/258335157","kinds":"shops,supermarkets,tourist_facilities","point":{"lon":-93.554199,"lat":44.54174}},{"xid":"W264603141","name":"Hy-Vee","rate":1,"osm":"way/264603141","kinds":"shops,supermarkets,tourist_facilities","point":{"lon":-93.50531,"lat":44.089851}},{"xid":"W277652438","name":"Radarmacher SuperValu","rate":1,"osm":"way/277652438","kinds":"shops,supermarkets,tourist_facilities","point":{"lon":-93.636398,"lat":44.668289}},{"xid":"W289418786","name":"Longfellow Market","rate":1,"osm":"way/289418786","kinds":"shops,supermarkets,tourist_facilities","point":{"lon":-93.216965,"lat":44.948078}},{"xid":"W295291200","name":"EconoFoods","rate":1,"osm":"way/295291200","kinds":"shops,supermarkets,tourist_facilities","point":{"lon":-93.159187,"lat":44.453651}},{"xid":"W350495661","name":"Lakewinds Food Co-op","rate":1,"osm":"way/350495661","kinds":"shops,supermarkets,tourist_facilities","point":{"lon":-93.288513,"lat":44.886524}},{"xid":"W484297951","name":"Cub Foods","rate":1,"osm":"way/484297951","kinds":"shops,supermarkets,tourist_facilities","point":{"lon":-93.597885,"lat":44.829647}},{"xid":"W524515003","name":"Aldi","rate":1,"osm":"way/524515003","kinds":"shops,supermarkets,tourist_facilities","point":{"lon":-93.439392,"lat":44.847965}},{"xid":"W544870167","name":"Family Fresh","rate":1,"osm":"way/544870167","kinds":"shops,supermarkets,tourist_facilities","point":{"lon":-93.960762,"lat":44.321617}},{"xid":"W605070044","name":"Little Burma Grocery","rate":1,"osm":"way/605070044","kinds":"shops,supermarkets,tourist_facilities","point":{"lon":-93.073799,"lat":44.974335}},{"xid":"W607969796","name":"Assafro African Food Market","rate":1,"osm":"way/607969796","kinds":"shops,supermarkets,tourist_facilities","point":{"lon":-93.106239,"lat":44.980728}},{"xid":"W607969961","name":"Karen & Hmong Market","rate":1,"osm":"way/607969961","kinds":"shops,supermarkets,tourist_facilities","point":{"lon":-93.105667,"lat":44.990845}},{"xid":"W40114180","name":"Cub Foods","rate":1,"osm":"way/40114180","kinds":"shops,supermarkets,tourist_facilities","point":{"lon":-93.539108,"lat":44.860188}},{"xid":"W40322927","name":"Lakewinds Natural Foods","rate":1,"osm":"way/40322927","kinds":"shops,supermarkets,tourist_facilities","point":{"lon":-93.531654,"lat":44.857262}},{"xid":"W42912972","name":"Walmart Supercenter","rate":1,"osm":"way/42912972","kinds":"shops,supermarkets,tourist_facilities","point":{"lon":-93.417732,"lat":44.779102}},{"xid":"W43521524","name":"Walmart Supercenter","rate":1,"osm":"way/43521524","kinds":"shops,supermarkets,tourist_facilities","point":{"lon":-93.431252,"lat":44.856171}},{"xid":"W44255395","name":"Cub Foods","rate":1,"osm":"way/44255395","kinds":"shops,supermarkets,tourist_facilities","point":{"lon":-93.235741,"lat":44.951466}},{"xid":"W44877383","name":"Mackenthun's","rate":1,"osm":"way/44877383","kinds":"shops,supermarkets,tourist_facilities","point":{"lon":-93.799995,"lat":44.836342}},{"xid":"W47087501","name":"Lunds & Byerlys","rate":1,"osm":"way/47087501","kinds":"shops,supermarkets,tourist_facilities","point":{"lon":-93.352829,"lat":44.998451}},{"xid":"W47637398","name":"Lunds & Byerlys","rate":1,"osm":"way/47637398","kinds":"shops,supermarkets,tourist_facilities","point":{"lon":-93.309547,"lat":44.88921}},{"xid":"W47637405","name":"Aldi","rate":1,"osm":"way/47637405","kinds":"shops,supermarkets,tourist_facilities","point":{"lon":-93.309494,"lat":44.888817}},{"xid":"W56760003","name":"Rainbow Foods","rate":1,"osm":"way/56760003","kinds":"shops,supermarkets,tourist_facilities","point":{"lon":-93.2827,"lat":44.884144}},{"xid":"W59706845","name":"Aldi","rate":1,"osm":"way/59706845","kinds":"shops,supermarkets,tourist_facilities","point":{"lon":-93.255264,"lat":44.962311}},{"xid":"W66979554","name":"Kowalski's","rate":1,"osm":"way/66979554","kinds":"shops,supermarkets,tourist_facilities","point":{"lon":-93.153351,"lat":44.940353}},{"xid":"W78943430","name":"Lake Shore Market","rate":1,"osm":"way/78943430","kinds":"shops,transport,supermarkets,tourist_facilities,fuel","point":{"lon":-93.550545,"lat":44.902584}},{"xid":"W95951338","name":"Super Target","rate":1,"osm":"way/95951338","kinds":"shops,supermarkets,tourist_facilities","point":{"lon":-93.155624,"lat":44.952991}},{"xid":"W118935039","name":"Phil-Oriental Foods","rate":1,"osm":"way/118935039","kinds":"shops,supermarkets,tourist_facilities","point":{"lon":-93.133469,"lat":44.955997}},{"xid":"W119878071","name":"Rainbow Foods","rate":1,"osm":"way/119878071","kinds":"shops,supermarkets,tourist_facilities","point":{"lon":-93.078743,"lat":44.895779}},{"xid":"W130819064","name":"Shanghai Market","rate":1,"osm":"way/130819064","kinds":"shops,supermarkets,tourist_facilities","point":{"lon":-93.165466,"lat":44.977043}},{"xid":"W143178220","name":"Hatien Asian Market","rate":1,"osm":"way/143178220","kinds":"shops,supermarkets,tourist_facilities","point":{"lon":-93.115089,"lat":44.956032}},{"xid":"W605096286","name":"","rate":0,"osm":"way/605096286","kinds":"shops,supermarkets,tourist_facilities","point":{"lon":-93.062599,"lat":44.97728}},{"xid":"W83576362","name":"","rate":0,"osm":"way/83576362","kinds":"shops,supermarkets,tourist_facilities","point":{"lon":-93.277298,"lat":44.895206}}]