[{'xid': 'W332480611', 'name': 'Walmart Supercenter', 'rate': 1, 'osm': 'way/332480611', 'kinds': 'shops,supermarkets,tourist_facilities', 'point': {'lon': -95.035233, 'lat': 45.100769}}, {'xid': 'W520341924', 'name': 'Aldi', 'rate': 1, 'osm': 'way/520341924', 'kinds': 'shops,supermarkets,tourist_facilities', 'point': {'lon': -95.038284, 'lat': 45.10413}}, {'xid': 'N2249697439', 'name': 'Cub Foods', 'rate': 1, 'osm': 'node/2249697439', 'kinds': 'shops,supermarkets,tourist_facilities', 'point': {'lon': -95.040588, 'lat': 45.101475}}, {'xid': 'N2250642900', 'name': 'Cash Wise Foods', 'rate': 1, 'osm': 'node/2250642900', 'kinds': 'shops,supermarkets,tourist_facilities', 'point': {'lon': -95.040169, 'lat': 45.109936}}, {'xid': 'N3174005146', 'name': "Elden's Fresh Foods", 'rate': 1, 'osm': 'node/3174005146', 'kinds': 'shops,supermarkets,tourist_facilities', 'point': {'lon': -95.367859, 'lat': 45.89016}}, {'xid': 'W202904166', 'name': 'Walmart Supercenter', 'rate': 1, 'osm': 'way/202904166', 'kinds': 'shops,supermarkets,tourist_facilities', 'point': {'lon': -95.382324, 'lat': 45.848553}}, {'xid': 'N2535133362', 'name': 'Cub Foods', 'rate': 1, 'osm': 'node/2535133362', 'kinds': 'shops,supermarkets,tourist_facilities', 'point': {'lon': -95.378792, 'lat': 45.86467}}, {'xid': 'N2193297939', 'name': 'Kensington Supermarket', 'rate': 1, 'osm': 'node/2193297939', 'kinds': 'shops,supermarkets,tourist_facilities', 'point': {'lon': -95.694588, 'lat': 45.779079}}, {'xid': 'N3291925990', 'name': 'The Grain Bin', 'rate': 1, 'osm': 'node/3291925990', 'kinds': 'shops,supermarkets,tourist_facilities', 'point': {'lon': -95.385933, 'lat': 45.848499}}, {'xid': 'W200684297', 'name': 'Deans SuperValu', 'rate': 1, 'osm': 'way/200684297', 'kinds': 'shops,supermarkets,tourist_facilities', 'point': {'lon': -95.97718, 'lat': 45.993221}}]