[{'xid': 'N560440429', 'name': "Russ Kendall's Smokehouse", 'rate': 1, 'osm': 'node/560440429', 'kinds': 'shops,supermarkets,tourist_facilities', 'point': {'lon': -91.789665, 'lat': 46.94421}}, {'xid': 'W99278105', 'name': 'Marketplace Foods - Hayward', 'rate': 1, 'osm': 'way/99278105', 'kinds': 'shops,supermarkets,tourist_facilities', 'point': {'lon': -91.481384, 'lat': 46.013187}}, {'xid': 'W99278131', 'name': 'Walmart Supercenter', 'rate': 1, 'osm': 'way/99278131', 'kinds': 'shops,supermarkets,tourist_facilities', 'point': {'lon': -91.470779, 'lat': 46.018044}}, {'xid': 'N2265501404', 'name': "Henson's Country Foods", 'rate': 1, 'osm': 'node/2265501404', 'kinds': 'shops,supermarkets,tourist_facilities', 'point': {'lon': -91.827744, 'lat': 46.101791}}, {'xid': 'N3060276643', 'name': "Ehler's General Store", 'rate': 1, 'osm': 'node/3060276643', 'kinds': 'shops,supermarkets,tourist_facilities', 'point': {'lon': -91.103706, 'lat': 46.854435}}]