[{'xid': 'W341586860', 'name': "Larry's Family Foods", 'rate': 1, 'osm': 'way/341586860', 'kinds': 'shops,supermarkets,tourist_facilities', 'point': {'lon': -87.422478, 'lat': 46.277023}}, {'xid': 'W341679668', 'name': 'Super One Foods', 'rate': 1, 'osm': 'way/341679668', 'kinds': 'shops,supermarkets,tourist_facilities', 'point': {'lon': -87.608429, 'lat': 46.509743}}, {'xid': 'W342233404', 'name': "Valle's Supermarket", 'rate': 1, 'osm': 'way/342233404', 'kinds': 'shops,supermarkets,tourist_facilities', 'point': {'lon': -87.394409, 'lat': 46.553478}}, {'xid': 'N3508018670', 'name': "Jim's Jubilee Foods", 'rate': 1, 'osm': 'node/3508018670', 'kinds': 'shops,supermarkets,tourist_facilities', 'point': {'lon': -87.6661, 'lat': 46.491379}}, {'xid': 'N6419667807', 'name': 'Meijer', 'rate': 1, 'osm': 'node/6419667807', 'kinds': 'shops,supermarkets,tourist_facilities', 'point': {'lon': -87.466087, 'lat': 46.550781}}, {'xid': 'W216274619', 'name': 'Walmart Supercenter', 'rate': 1, 'osm': 'way/216274619', 'kinds': 'shops,supermarkets,tourist_facilities', 'point': {'lon': -87.459793, 'lat': 46.547314}}, {'xid': 'W159114364', 'name': 'Econo Foods', 'rate': 1, 'osm': 'way/159114364', 'kinds': 'shops,supermarkets,tourist_facilities', 'point': {'lon': -87.423965, 'lat': 46.542377}}, {'xid': 'W216274617', 'name': 'Target', 'rate': 1, 'osm': 'way/216274617', 'kinds': 'shops,supermarkets,tourist_facilities', 'point': {'lon': -87.459785, 'lat': 46.551617}}, {'xid': 'W216274615', 'name': 'Super One', 'rate': 1, 'osm': 'way/216274615', 'kinds': 'shops,supermarkets,tourist_facilities', 'point': {'lon': -87.455154, 'lat': 46.551182}}, {'xid': 'W341608680', 'name': 'Marquette Food Co-op', 'rate': 1, 'osm': 'way/341608680', 'kinds': 'shops,supermarkets,tourist_facilities', 'point': {'lon': -87.402657, 'lat': 46.545059}}, {'xid': 'W341947083', 'name': "Jim's Jubilee Foods", 'rate': 1, 'osm': 'way/341947083', 'kinds': 'shops,supermarkets,tourist_facilities', 'point': {'lon': -87.684715, 'lat': 46.498959}}, {'xid': 'N6554658787', 'name': 'Great Lakes Fresh Market', 'rate': 1, 'osm': 'node/6554658787', 'kinds': 'shops,supermarkets,tourist_facilities', 'point': {'lon': -87.349655, 'lat': 46.485813}}, {'xid': 'N3487356285', 'name': "Brown's Store", 'rate': 1, 'osm': 'node/3487356285', 'kinds': 'shops,supermarkets,tourist_facilities', 'point': {'lon': -87.34156, 'lat': 46.287857}}]