[{"xid":"W280519031","name":"Provigo","rate":1,"osm":"way/280519031","kinds":"shops,supermarkets,tourist_facilities","point":{"lon":-69.811058,"lat":47.530537}},{"xid":"W518996086","name":"Marché Richelieu","rate":1,"osm":"way/518996086","kinds":"shops,supermarkets,tourist_facilities","point":{"lon":-69.530098,"lat":47.823727}},{"xid":"N4192515673","name":"Magasin général","rate":1,"osm":"node/4192515673","kinds":"shops,supermarkets,tourist_facilities","point":{"lon":-69.990601,"lat":47.737595}},{"xid":"N4704524274","name":"Chez Normand","rate":1,"osm":"node/4704524274","kinds":"shops,supermarkets,tourist_facilities","point":{"lon":-69.478851,"lat":47.7612}},{"xid":"N6165067016","name":"Marcher Saint-Arsène","rate":1,"osm":"node/6165067016","kinds":"shops,supermarkets,tourist_facilities","point":{"lon":-69.432716,"lat":47.912525}},{"xid":"N6169364929","name":"Marché Richelieu","rate":1,"osm":"node/6169364929","kinds":"shops,supermarkets,tourist_facilities","point":{"lon":-69.624962,"lat":47.68309}},{"xid":"N6174774733","name":"Epicerie Chez Daniel","rate":1,"osm":"node/6174774733","kinds":"shops,supermarkets,tourist_facilities","point":{"lon":-69.85984,"lat":47.440304}},{"xid":"W333105435","name":"IGA","rate":1,"osm":"way/333105435","kinds":"shops,supermarkets,tourist_facilities","point":{"lon":-69.554512,"lat":47.825253}},{"xid":"N6166737760","name":"Ami","rate":1,"osm":"node/6166737760","kinds":"shops,supermarkets,tourist_facilities","point":{"lon":-69.953758,"lat":47.405334}},{"xid":"W333105438","name":"Maxi","rate":1,"osm":"way/333105438","kinds":"shops,supermarkets,tourist_facilities","point":{"lon":-69.546234,"lat":47.826324}},{"xid":"W333079460","name":"Provigo Viel-Mailloux","rate":1,"osm":"way/333079460","kinds":"shops,supermarkets,tourist_facilities","point":{"lon":-69.506989,"lat":47.821102}},{"xid":"W333175860","name":"Marché Richelieu","rate":1,"osm":"way/333175860","kinds":"shops,supermarkets,tourist_facilities","point":{"lon":-69.536064,"lat":47.836246}},{"xid":"N6165086779","name":"Epicerie Beaulieu","rate":1,"osm":"node/6165086779","kinds":"shops,supermarkets,tourist_facilities","point":{"lon":-69.094765,"lat":47.923462}},{"xid":"N6174774732","name":"Marché Bonichoix","rate":1,"osm":"node/6174774732","kinds":"shops,supermarkets,tourist_facilities","point":{"lon":-69.857231,"lat":47.442146}},{"xid":"N6668774885","name":"Épicerie Charest","rate":1,"osm":"node/6668774885","kinds":"shops,supermarkets,tourist_facilities","point":{"lon":-69.732033,"lat":47.589935}},{"xid":"W618961937","name":"BoniChoix - SAQ","rate":1,"osm":"way/618961937","kinds":"shops,supermarkets,tourist_facilities","point":{"lon":-69.879295,"lat":47.843746}}]