[{'xid': 'W234339112', 'name': 'Hood Canal Grocery', 'rate': 1, 'osm': 'way/234339112', 'kinds': 'shops,supermarkets,tourist_facilities', 'point': {'lon': -123.142258, 'lat': 47.404457}}, {'xid': 'N2711297025', 'name': "Gordon's Select Market", 'rate': 1, 'osm': 'node/2711297025', 'kinds': 'shops,supermarkets,tourist_facilities', 'point': {'lon': -123.267372, 'lat': 47.055828}}, {'xid': 'N4453695343', 'name': 'Union Country Store', 'rate': 1, 'osm': 'node/4453695343', 'kinds': 'shops,supermarkets,tourist_facilities', 'point': {'lon': -123.099518, 'lat': 47.356766}}, {'xid': 'W232711065', 'name': "Everybody's Thriftway", 'rate': 1, 'osm': 'way/232711065', 'kinds': 'shops,supermarkets,tourist_facilities', 'point': {'lon': -123.409195, 'lat': 47.001045}}, {'xid': 'N2414187382', 'name': 'Red Apple Market', 'rate': 1, 'osm': 'node/2414187382', 'kinds': 'shops,supermarkets,tourist_facilities', 'point': {'lon': -123.09211, 'lat': 47.200893}}, {'xid': 'W32893411', 'name': 'Fred Meyer', 'rate': 1, 'osm': 'way/32893411', 'kinds': 'shops,supermarkets,tourist_facilities', 'point': {'lon': -123.124008, 'lat': 47.229874}}, {'xid': 'W134629399', 'name': 'Safeway', 'rate': 1, 'osm': 'way/134629399', 'kinds': 'shops,supermarkets,tourist_facilities', 'point': {'lon': -123.106514, 'lat': 47.214638}}, {'xid': 'W32893418', 'name': 'Walmart Supercenter', 'rate': 1, 'osm': 'way/32893418', 'kinds': 'shops,supermarkets,tourist_facilities', 'point': {'lon': -123.125603, 'lat': 47.233109}}, {'xid': 'N2397844903', 'name': 'Island Market', 'rate': 1, 'osm': 'node/2397844903', 'kinds': 'shops,supermarkets,tourist_facilities', 'point': {'lon': -123.02076, 'lat': 47.080166}}, {'xid': 'W698209353', 'name': 'Discount Grocery', 'rate': 1, 'osm': 'way/698209353', 'kinds': 'shops,supermarkets,tourist_facilities', 'point': {'lon': -123.100685, 'lat': 47.211403}}]