[{"xid":"N3046614789","name":"Natural Harvest Food Cooperative","rate":1,"osm":"node/3046614789","kinds":"shops,supermarkets,tourist_facilities","point":{"lon":-92.539528,"lat":47.526043}},{"xid":"N3256325261","name":"Zup's","rate":1,"osm":"node/3256325261","kinds":"shops,supermarkets,tourist_facilities","point":{"lon":-92.272079,"lat":47.80555}},{"xid":"N3256448803","name":"Soudan's Only Store (& fuel)","rate":1,"osm":"node/3256448803","kinds":"shops,supermarkets,tourist_facilities","point":{"lon":-92.246277,"lat":47.816242}},{"xid":"N4812231698","name":"Super One","rate":1,"osm":"node/4812231698","kinds":"shops,supermarkets,tourist_facilities","point":{"lon":-92.344307,"lat":47.533131}},{"xid":"W147100833","name":"Super One Foods","rate":1,"osm":"way/147100833","kinds":"shops,supermarkets,tourist_facilities","point":{"lon":-92.542931,"lat":47.527763}},{"xid":"W374038620","name":"Walmart Supercenter","rate":1,"osm":"way/374038620","kinds":"shops,supermarkets,tourist_facilities","point":{"lon":-92.960144,"lat":47.397663}},{"xid":"W492426439","name":"Walmart Supercenter","rate":1,"osm":"way/492426439","kinds":"shops,supermarkets,tourist_facilities","point":{"lon":-92.591095,"lat":47.522938}},{"xid":"N1603044651","name":"Super One Foods","rate":1,"osm":"node/1603044651","kinds":"shops,supermarkets,tourist_facilities","point":{"lon":-92.55027,"lat":47.509342}},{"xid":"N5640930940","name":"Super One Foods","rate":1,"osm":"node/5640930940","kinds":"shops,supermarkets,tourist_facilities","point":{"lon":-92.926567,"lat":47.408707}},{"xid":"N5640932609","name":"Super One Liquor","rate":1,"osm":"node/5640932609","kinds":"shops,supermarkets,tourist_facilities","point":{"lon":-92.927147,"lat":47.408371}},{"xid":"W26605674","name":"Jubilee","rate":1,"osm":"way/26605674","kinds":"shops,supermarkets,tourist_facilities","point":{"lon":-92.881668,"lat":47.488422}}]