[{"xid":"W429220967","name":"Leonard Paul Store","rate":1,"osm":"way/429220967","kinds":"shops,supermarkets,tourist_facilities","point":{"lon":-116.84877,"lat":48.48003}},{"xid":"N889527889","name":"Yoke's Supermarket","rate":1,"osm":"node/889527889","kinds":"shops,supermarkets,tourist_facilities","point":{"lon":-116.545166,"lat":48.30201}},{"xid":"N3890992072","name":"Super 1 Foods","rate":1,"osm":"node/3890992072","kinds":"shops,supermarkets,tourist_facilities","point":{"lon":-116.332443,"lat":48.677315}},{"xid":"N4293621726","name":"Tamac Shopping Village","rate":1,"osm":"node/4293621726","kinds":"shops,supermarkets,tourist_facilities","point":{"lon":-116.928787,"lat":48.516182}},{"xid":"N4953900424","name":"Yoder's Market","rate":1,"osm":"node/4953900424","kinds":"shops,supermarkets,tourist_facilities","point":{"lon":-116.322449,"lat":48.683689}},{"xid":"N5388344221","name":"Winter Ridge Natural Foods","rate":1,"osm":"node/5388344221","kinds":"shops,supermarkets,tourist_facilities","point":{"lon":-116.557846,"lat":48.271759}},{"xid":"W75344254","name":"Super 1 Foods","rate":1,"osm":"way/75344254","kinds":"shops,supermarkets,tourist_facilities","point":{"lon":-116.556229,"lat":48.281731}},{"xid":"W131635219","name":"Safeway 2954","rate":1,"osm":"way/131635219","kinds":"shops,supermarkets,tourist_facilities","point":{"lon":-116.328896,"lat":48.677734}},{"xid":"W131635759","name":"Safeway","rate":1,"osm":"way/131635759","kinds":"shops,supermarkets,tourist_facilities","point":{"lon":-116.552353,"lat":48.279819}},{"xid":"N4162267217","name":"Mitchell's Harvest Food","rate":1,"osm":"node/4162267217","kinds":"shops,supermarkets,tourist_facilities","point":{"lon":-116.9217,"lat":48.181385}},{"xid":"W75354172","name":"Walmart Supercenter","rate":1,"osm":"way/75354172","kinds":"shops,supermarkets,tourist_facilities","point":{"lon":-116.54348,"lat":48.307709}}]