[{'xid': 'N4882102710', 'name': 'Le Petit Marché', 'rate': 1, 'osm': 'node/4882102710', 'kinds': 'shops,supermarkets,tourist_facilities', 'point': {'lon': -70.588005, 'lat': 48.386559}}, {'xid': 'N4870420450', 'name': 'Maxi', 'rate': 1, 'osm': 'node/4870420450', 'kinds': 'shops,supermarkets,tourist_facilities', 'point': {'lon': -70.89753, 'lat': 48.336269}}, {'xid': 'W111436266', 'name': 'Marché Axep', 'rate': 1, 'osm': 'way/111436266', 'kinds': 'shops,supermarkets,tourist_facilities', 'point': {'lon': -70.068054, 'lat': 48.209198}}, {'xid': 'N4870420441', 'name': 'IGA', 'rate': 1, 'osm': 'node/4870420441', 'kinds': 'shops,supermarkets,tourist_facilities', 'point': {'lon': -70.890594, 'lat': 48.331898}}, {'xid': 'N4870671031', 'name': 'Boni-Choix', 'rate': 1, 'osm': 'node/4870671031', 'kinds': 'shops,supermarkets,tourist_facilities', 'point': {'lon': -70.245255, 'lat': 48.196693}}, {'xid': 'N5023176421', 'name': '', 'rate': 0, 'osm': 'node/5023176421', 'kinds': 'shops,supermarkets,tourist_facilities', 'point': {'lon': -70.21386, 'lat': 48.230209}}]